[{"name": "ソユーゲームフィールド旭川駅前", "address": "北海道 旭川市 宮下通 7-2-5　イオンモール旭川駅前4F", "loc_id": "tCZEbuhu-jhGRhKMXYGniA", "latitude": 43.764006, "longitude": 142.357115},{"name": "アミューズメントスペース遊ランド稚内", "address": "北海道 稚内市 港 5-8-15", "loc_id": "kI8lAziyvWuHSU42ftYEzg", "latitude": 45.4007384, "longitude": 141.6808901},
{"name": "アミューズメントゾーン北上", "address": "岩手県 北上市 本通り 2-2-1　さくら野百貨店北上店4F", "loc_id": "-FabGdDnZd7_udefynEPjg", "latitude": 39.288443, "longitude": 141.115825},{"name": "ソユーゲームフィールド釜石", "address": "岩手県 釜石市 港町 2-51-41　イオンタウン釜石3F", "loc_id": "-5JbKSsfwK-jpbgonWFYOw", "latitude": 39.271199, "longitude": 141.881805},
{"name": "ゲームフィールド仙台長町", "address": "宮城県 仙台市太白区 長町 7-20-3　ザ・モール仙台長町3F", "loc_id": "EkjeQb4Z4mcmE0b7pHT2pw", "latitude": 38.22599, "longitude": 140.876736},{"name": "スーパーノバイオン仙台中山", "address": "宮城県 仙台市泉区 南中山 1-35-57　イオン仙台中山SC　イオン仙台中山店別館3F", "loc_id": "rI7ymjTOFiPfPZtjZO_c9Q", "latitude": 38.297896, "longitude": 140.827083},{"name": "GAME BANK 泉", "address": "宮城県 仙台市泉区 大沢 2-5-4", "loc_id": "PxXWTR6SVhQUo1Cujad0lw", "latitude": 38.3527358, "longitude": 140.8773475},{"name": "GiGO 仙台", "address": "宮城県 仙台市青葉区 中央 2-5-5", "loc_id": "08rsOjm3vjm8e677jwwdXg", "latitude": 38.261621, "longitude": 140.876736},{"name": "ゲームランド佐沼", "address": "宮城県 登米市 南方町新島前 46-1　イオンタウン佐沼1F", "loc_id": "Emmn3DtAPqwczdqRp-gnhw", "latitude": 38.682592, "longitude": 141.183925},{"name": "ソユーゲームフィールド古川", "address": "宮城県 大崎市 古川沢田 字筒場浦15　イオンタウン古川内", "loc_id": "XUsqBCYKjhdYSh0uJX49LQ", "latitude": 38.599023, "longitude": 140.974156},{"name": "スーパーノバ仙台利府", "address": "宮城県 宮城郡利府町 加瀬字新前谷地 55-1　利府ペアガーデン内", "loc_id": "x8gZNPqPXE8NX_7tCukm_Q", "latitude": 38.328029, "longitude": 140.975611},
{"name": "プラサカプコン大曲", "address": "秋田県 大仙市 和合字坪立 177　イオンモール大曲2F", "loc_id": "yPk_gRySBqHY42yREc9D7w", "latitude": 39.438944, "longitude": 140.508099},
{"name": "スーパーノバ天童", "address": "山形県 天童市 南町 1-5-26", "loc_id": "eLRczaz4eFICkYJN_-X0MA", "latitude": 38.3430247, "longitude": 140.3739948},{"name": "ソユーゲームフィールド三川", "address": "山形県 東田川郡三川町 猪子字和田庫 128-1　イオンモール三川1F", "loc_id": "9Adq2RlOWFvLyn8Mj9OVmA", "latitude": 38.81588695, "longitude": 139.8350573},
{"name": "G3ポロス原町", "address": "福島県 南相馬市 原町区北原字本屋敷 188", "loc_id": "oAmUMP8Ln7VHjwZIoLaGBA", "latitude": 37.6268239, "longitude": 140.9879456},
{"name": "ユーズランド水戸内原", "address": "茨城県 水戸市 中原町字西 135　イオンモール水戸内原2F", "loc_id": "_g5tCiEcek4HvS-ihNY16Q", "latitude": 36.37417402, "longitude": 140.3581846},
{"name": "ユーズランド高崎", "address": "群馬県 高崎市 棟高町 1400　イオンモール高崎2F", "loc_id": "NhSyeJhLsnR1dZ5-Tuk7kA", "latitude": 36.39042123, "longitude": 139.0066946},{"name": "群馬レジャーランド高崎駅東口", "address": "群馬県 高崎市 江木町 333-1　高崎EXビルB1・2F", "loc_id": "ia42VZ7HlUikAtkExT3ysg", "latitude": 36.32988076, "longitude": 139.0129173},
{"name": "ゲームシティ川口", "address": "埼玉県 川口市 栄町 1-10-5", "loc_id": "Zx4QEqYhLyTlWyCEwRMEJQ", "latitude": 35.80255221, "longitude": 139.7256124},{"name": "ビデオゲームミュージアムロボット深谷", "address": "埼玉県 深谷市 上柴町西 4-12-1", "loc_id": "AVzHYwB0ypjPaJSNDf26sQ", "latitude": 36.179653, "longitude": 139.2987764},
{"name": "ラッキー中央店フェリシダ", "address": "千葉県 千葉市中央区 富士見 2-8-1", "loc_id": "25NMlVHEFQ5JYjqA8w1OlA", "latitude": 35.61026525, "longitude": 140.1182985},{"name": "タイトーFステーション市川妙典", "address": "千葉県 市川市 妙典 4-1-1　イオン市川妙典2番街2F", "loc_id": "xDQGuPMEIwg-rxyCwE0ZrA", "latitude": 35.692538, "longitude": 139.926679},{"name": "マリンガーデンららぽーとTOKYO-BAY", "address": "千葉県 船橋市 浜町 2-1-1　ららぽーとTOKYO-BAY西館3F", "loc_id": "5Q1z1xau7mb0Fq_5c1u4Ww", "latitude": 35.686281, "longitude": 139.990393},
{"name": "namco中野", "address": "東京都 中野区 中野 5-52-15　中野ブロードウェイ別館", "loc_id": "BlQ9dEVrA_Oj20-Ywyri5Q", "latitude": 35.70910422, "longitude": 139.6661183},{"name": "namco巣鴨", "address": "東京都 豊島区 巣鴨 1-15-1　宮田ビルB1・B2F", "loc_id": "HA7tpRVAo6my84_HRuQ5Dw", "latitude": 35.7331841, "longitude": 139.7399226},{"name": "クラブセガ立川", "address": "東京都 立川市 柴崎町 3-2-1　サザンビル1F", "loc_id": "l1PJ2RhdSrzlUBvi1hI1ow", "latitude": 35.69751, "longitude": 139.41462},{"name": "ユーズランド日の出", "address": "東京都 西多摩郡日の出町 平井字三吉野桜木 237-3　イオンモール日の出3F", "loc_id": "epO3RpifzpZpLxfF1iasgQ", "latitude": 35.73496511, "longitude": 139.2753553},
{"name": "ゲームパラダイスゼロワン", "address": "神奈川県 横須賀市 若松町 1-6　ヨコビル3F", "loc_id": "p1SXo01I7NOOsq21D3-nSg", "latitude": 35.279547, "longitude": 139.671056},{"name": "アミューズメントパークネバーランド2", "address": "神奈川県 座間市 ひばりが丘 4-11-48", "loc_id": "wJn189RjTcI93VI3P7FFBA", "latitude": 35.4800499, "longitude": 139.4320659},
{"name": "カプコサーカス新潟東", "address": "新潟県 新潟市東区 大形本町 3-1-2　イオン新潟東店内ゲームコーナー", "loc_id": "_INsvFeP7CpdKNhIuNirQg", "latitude": 37.92514116, "longitude": 139.1147232},{"name": "ゲームセンターテクノポリス", "address": "新潟県 長岡市 要町 1-8-50", "loc_id": "3omUa42sC_-wtRlc8l5ASw", "latitude": 37.424981, "longitude": 138.83773},
{"name": "プラサカプコン甲府", "address": "山梨県 中巨摩郡昭和町 西条字北河原 3717", "loc_id": "UzSf8ZyfrDUWq0Ymx_ERdQ", "latitude": 35.64287205, "longitude": 138.546052},
{"name": "大垣メトロポリス", "address": "岐阜県 大垣市 三塚町字西沼 523-1", "loc_id": "mNVlWYaAAr61_shqPII7fQ", "latitude": 35.367065, "longitude": 136.629233},{"name": "岐阜レジャーランド穂積", "address": "岐阜県 瑞穂市 稲里 630", "loc_id": "1agMaI4AB6Bbll5yz2wxwg", "latitude": 35.38432231, "longitude": 136.6845667},
{"name": "プラサカプコン徳重", "address": "愛知県 名古屋市緑区 鳴海町 字徳重18-44　ヒルズウォーク徳重ガーデンズ　ガーデンズ棟2F", "loc_id": "K2mljTuYK1p_b7UccDHAiQ", "latitude": 35.094389, "longitude": 136.999208},{"name": "ADXマミー岡崎", "address": "愛知県 岡崎市 井田新町 6-1", "loc_id": "WjOKnaPt8-R61FKbJJgF3w", "latitude": 34.9770122, "longitude": 137.1616994},{"name": "豊川メトロポリス", "address": "愛知県 豊川市 下長山町上アライ 14-1", "loc_id": "2KDJ_WbwTTgLhvmZt2ifuw", "latitude": 34.80247481, "longitude": 137.3848057},{"name": "M&#39;sPARK刈谷", "address": "愛知県 刈谷市 稲場町 3-206", "loc_id": "sGJo2Mn_qYmmXOU6jzdQUw", "latitude": 35.00546406, "longitude": 137.0014375},{"name": "ユーズランド東浦", "address": "愛知県 知多郡東浦町 緒川申新田二区 67-8　イオンモール東浦2F", "loc_id": "l8RKKMo7m7zzVon0E1mOiw", "latitude": 34.97895528, "longitude": 136.9741166},
{"name": "アミパラ垂水", "address": "兵庫県 神戸市垂水区 名谷町字室山 1400-18", "loc_id": "kaitpjdXRTkENQ2Rsns2uw", "latitude": 34.66456702, "longitude": 135.0667709},
{"name": "ピタゴラス和歌山", "address": "和歌山県 和歌山市 土入 73-1", "loc_id": "37jenbdchd9NKhFGndyfVQ", "latitude": 34.252872, "longitude": 135.145628}]