[{"name": "ゲームフィールド仙台長町", "address": "宮城県 仙台市太白区 長町 7-20-3　ザ・モール仙台長町3F", "loc_id": "EkjeQb4Z4mcmE0b7pHT2pw", "latitude": 38.22599, "longitude": 140.876736},{"name": "GiGO 仙台", "address": "宮城県 仙台市青葉区 中央 2-5-5", "loc_id": "08rsOjm3vjm8e677jwwdXg", "latitude": 38.261621, "longitude": 140.876736},{"name": "ゲームランド佐沼", "address": "宮城県 登米市 南方町新島前 46-1　イオンタウン佐沼1F", "loc_id": "Emmn3DtAPqwczdqRp-gnhw", "latitude": 38.682592, "longitude": 141.183925},
{"name": "プラサカプコン大曲", "address": "秋田県 大仙市 和合字坪立 177　イオンモール大曲2F", "loc_id": "yPk_gRySBqHY42yREc9D7w", "latitude": 39.438944, "longitude": 140.508099},
{"name": "ユーズランド水戸内原", "address": "茨城県 水戸市 中原町字西 135　イオンモール水戸内原2F", "loc_id": "_g5tCiEcek4HvS-ihNY16Q", "latitude": 36.37417402, "longitude": 140.3581846},
{"name": "ラッキー中央店フェリシダ", "address": "千葉県 千葉市中央区 富士見 2-8-1", "loc_id": "25NMlVHEFQ5JYjqA8w1OlA", "latitude": 35.61026525, "longitude": 140.1182985},{"name": "タイトーFステーション市川妙典", "address": "千葉県 市川市 妙典 4-1-1　イオン市川妙典2番街2F", "loc_id": "xDQGuPMEIwg-rxyCwE0ZrA", "latitude": 35.692538, "longitude": 139.926679},{"name": "マリンガーデンららぽーとTOKYO-BAY", "address": "千葉県 船橋市 浜町 2-1-1　ららぽーとTOKYO-BAY西館3F", "loc_id": "5Q1z1xau7mb0Fq_5c1u4Ww", "latitude": 35.686281, "longitude": 139.990393},
{"name": "namco中野", "address": "東京都 中野区 中野 5-52-15　中野ブロードウェイ別館", "loc_id": "BlQ9dEVrA_Oj20-Ywyri5Q", "latitude": 35.70910422, "longitude": 139.6661183},
{"name": "小田原メトロポリス", "address": "神奈川県 小田原市 前川 219-4", "loc_id": "ljRWgmWbQdDuEtdv7t_lLg", "latitude": 35.2787436, "longitude": 139.1940786},
{"name": "カプコサーカス新潟東", "address": "新潟県 新潟市東区 大形本町 3-1-2　イオン新潟東店内ゲームコーナー", "loc_id": "_INsvFeP7CpdKNhIuNirQg", "latitude": 37.92514116, "longitude": 139.1147232},{"name": "ゲームセンターテクノポリス", "address": "新潟県 長岡市 要町 1-8-50", "loc_id": "3omUa42sC_-wtRlc8l5ASw", "latitude": 37.424981, "longitude": 138.83773},
{"name": "プラサカプコン甲府", "address": "山梨県 中巨摩郡昭和町 西条字北河原 3717", "loc_id": "UzSf8ZyfrDUWq0Ymx_ERdQ", "latitude": 35.64287205, "longitude": 138.546052},
{"name": "プラサカプコン徳重", "address": "愛知県 名古屋市緑区 鳴海町 字徳重18-44　ヒルズウォーク徳重ガーデンズ　ガーデンズ棟2F", "loc_id": "K2mljTuYK1p_b7UccDHAiQ", "latitude": 35.094389, "longitude": 136.999208},{"name": "M&#39;sPARK刈谷", "address": "愛知県 刈谷市 稲場町 3-206", "loc_id": "sGJo2Mn_qYmmXOU6jzdQUw", "latitude": 35.00546406, "longitude": 137.0014375},{"name": "ユーズランド東浦", "address": "愛知県 知多郡東浦町 緒川申新田二区 67-8　イオンモール東浦2F", "loc_id": "l8RKKMo7m7zzVon0E1mOiw", "latitude": 34.97895528, "longitude": 136.9741166}]