{"TITLE":"グル―ヴコースター4G / グル―ヴコースター4C","DATE":"2023-04-07 22:59:49","DATA":[{"ID":"522","TNAME":"キャッツアイ新札幌店","AREA":"1","PREF":"北海道","CNT":"3","EVENT":0,"ADDR":"札幌市厚別区厚別東五条１丁目２−１０","LNG":"141.4751106900742","LAT":"43.04545979906732","ZIP":"004-0005","PARENT_ID":0,"RECORD":0},{"ID":"1173","TNAME":"キャッツアイ恵庭店","AREA":"1","PREF":"北海道","CNT":"2","EVENT":0,"ADDR":"恵庭市住吉町２丁目９−１","LNG":"141.5834901","LAT":"42.8758823","ZIP":"061-1441","PARENT_ID":0,"RECORD":0},{"ID":"1174","TNAME":"キャッツアイ新川店","AREA":"1","PREF":"北海道","CNT":"2","EVENT":0,"ADDR":"札幌市北区新川二条７丁目１−７","LNG":"141.3102418","LAT":"43.1007562","ZIP":"001-0922","PARENT_ID":0,"RECORD":0},{"ID":"2690","TNAME":"キャッツアイ東苗穂店","AREA":"1","PREF":"北海道","CNT":"1","EVENT":0,"ADDR":"札幌市東区東苗穂六条２丁目１−２５","LNG":"141.4069588","LAT":"43.0923715","ZIP":"007-0806","PARENT_ID":0,"RECORD":0},{"ID":"2895","TNAME":"タイトーステーション千歳店","AREA":"1","PREF":"北海道","CNT":"1","EVENT":0,"ADDR":"千歳市北栄２－１２－５","LNG":"141.6450008","LAT":"42.8334338","ZIP":"066-0036","PARENT_ID":0,"RECORD":0},{"ID":"2962","TNAME":"ｎａｍｃｏ札幌西町店","AREA":"1","PREF":"北海道","CNT":"2","EVENT":0,"ADDR":"札幌市西区西町北１３丁目１番","LNG":"141.28369227606","LAT":"43.082414618021","ZIP":"063-0061","PARENT_ID":0,"RECORD":0},{"ID":"5874","TNAME":"タイトーイオンモール札幌平岡店","AREA":"1","PREF":"北海道","CNT":"1","EVENT":0,"ADDR":"札幌市清田区平岡三条５－３－１","LNG":"141.4582264","LAT":"42.9968974","ZIP":"004-0873","PARENT_ID":0,"RECORD":0},{"ID":"5929","TNAME":"遊ランド　春光店","AREA":"1","PREF":"北海道","CNT":"2","EVENT":0,"ADDR":"旭川市春光１条７丁目２番２５号","LNG":"142.3740309637626","LAT":"43.798179869827024","ZIP":"070-0871","PARENT_ID":0,"RECORD":0},{"ID":"6118","TNAME":"ソユーゲームフィールド発寒店","AREA":"1","PREF":"北海道","CNT":"1","EVENT":0,"ADDR":"札幌市西区発寒八条１２丁目１−１　イオンモール発寒３Ｆ","LNG":"141.27709470000002","LAT":"43.096183634280145","ZIP":"063-0828","PARENT_ID":0,"RECORD":0},{"ID":"6260","TNAME":"ファンタジープラザ苫小牧","AREA":"1","PREF":"北海道","CNT":"1","EVENT":0,"ADDR":"苫小牧市木場町１−６−１　ＭＥＧＡドンキホーテ苫小牧店２Ｆ","LNG":"141.59540916679532","LAT":"42.64106270391916","ZIP":"053-0033","PARENT_ID":0,"RECORD":0},{"ID":"7502","TNAME":"ＭＡＸＩＭ　ＨＥＲＯ","AREA":"1","PREF":"北海道","CNT":"1","EVENT":0,"ADDR":"札幌市北区北六条西６丁目　鉄道高架下","LNG":"141.34634479077","LAT":"43.067553611344","ZIP":"060-0806","PARENT_ID":0,"RECORD":0},{"ID":"7698","TNAME":"ソユーゲームフィールド旭川駅前","AREA":"1","PREF":"北海道","CNT":"1","EVENT":0,"ADDR":"旭川市宮下通７丁目２番５号　イオンモール旭川駅前　４Ｆ","LNG":"142.35694344100034","LAT":"43.764114066374724","ZIP":"070-0030","PARENT_ID":0,"RECORD":0},{"ID":"7852","TNAME":"ラウンドワン札幌すすきの店","AREA":"1","PREF":"北海道","CNT":1,"EVENT":0,"ADDR":"札幌市中央区南五条西三丁目６番地１","LNG":"141.35400096924207","LAT":"43.05418085680893","ZIP":"064-0805","PARENT_ID":0,"RECORD":0},{"ID":"7965","TNAME":"タイトー札幌狸小路２丁目店","AREA":"1","PREF":"北海道","CNT":"1","EVENT":0,"ADDR":"札幌市中央区南三条西２丁目　ニコービル","LNG":"141.3554536","LAT":"43.0573232","ZIP":"060-0063","PARENT_ID":0,"RECORD":0},{"ID":"8012","TNAME":"ｎａｍｃｏウイングベイ小樽店","AREA":"1","PREF":"北海道","CNT":"1","EVENT":0,"ADDR":"小樽市築港１１番５号　ウイングベイ小樽　５番街　３階","LNG":"141.02234211401674","LAT":"43.18409171828879","ZIP":"047-0008","PARENT_ID":0,"RECORD":0},{"ID":"8020","TNAME":"ゲームランド新さっぽろ","AREA":"1","PREF":"北海道","CNT":"2","EVENT":0,"ADDR":"札幌市厚別区厚別中央二条５丁目　新さっぽろアークシティ　カテプリ新さっぽろ　３階","LNG":"141.47312811006464","LAT":"43.03763033761811","ZIP":"004-0052","PARENT_ID":0,"RECORD":0}],"COPYRIGHT":"2023"}
{"TITLE":"グル―ヴコースター4G / グル―ヴコースター4C","DATE":"2023-04-07 22:59:49","DATA":[{"ID":"1581","TNAME":"ゲームフェスタミタマ","AREA":"2","PREF":"青森県","CNT":"2","EVENT":0,"ADDR":"弘前市駅前町５番地５","LNG":"140.4835492","LAT":"40.5983865","ZIP":"036-8003","PARENT_ID":0,"RECORD":0},{"ID":"1749","TNAME":"ユーズランド下田店","AREA":"2","PREF":"青森県","CNT":"2","EVENT":0,"ADDR":"上北郡おいらせ町中野平４０−１　イオンモール下田　１Ｆ","LNG":"141.4181727","LAT":"40.6020482","ZIP":"039-2112","PARENT_ID":0,"RECORD":0},{"ID":"2598","TNAME":"ゲームランドつがる柏店","AREA":"2","PREF":"青森県","CNT":"2","EVENT":0,"ADDR":"つがる市柏稲盛幾世４１　イオンモールつがる柏　２階","LNG":"140.41688150555728","LAT":"40.80234078909292","ZIP":"038-3107","PARENT_ID":0,"RECORD":0},{"ID":"3150","TNAME":"タイトーステーション青森アムゼ","AREA":"2","PREF":"青森県","CNT":"2","EVENT":0,"ADDR":"青森市緑３丁目９番地の２　サンロード青森　アムゼ内","LNG":"140.7532926","LAT":"40.8078124","ZIP":"030-0845","PARENT_ID":0,"RECORD":0},{"ID":"3151","TNAME":"タイトー青森ガーラモール店","AREA":"2","PREF":"青森県","CNT":"1","EVENT":0,"ADDR":"青森市三好２－３－１９　マエダ西バイパス店２Ｆ","LNG":"140.70262623558","LAT":"40.832816265905","ZIP":"038-0006","PARENT_ID":0,"RECORD":0},{"ID":"3349","TNAME":"ファンタジードーム八戸","AREA":"2","PREF":"青森県","CNT":"1","EVENT":0,"ADDR":"八戸市江陽２−１４−１　ラピア八戸別棟","LNG":"141.5033716","LAT":"40.5219383","ZIP":"031-0801","PARENT_ID":0,"RECORD":0},{"ID":"7507","TNAME":"スペースファンタジーインフィニ","AREA":"2","PREF":"青森県","CNT":"1","EVENT":0,"ADDR":"弘前市城東北３丁目１０番地１　さくら野百貨店弘前店　４Ｆ","LNG":"140.495872871164","LAT":"40.60669414528209","ZIP":"036-8092","PARENT_ID":0,"RECORD":0}],"COPYRIGHT":"2023"}
{"TITLE":"グル―ヴコースター4G / グル―ヴコースター4C","DATE":"2023-04-07 22:59:49","DATA":[{"ID":"34","TNAME":"タイトー盛岡マッハランド店","AREA":"2","PREF":"岩手県","CNT":"1","EVENT":0,"ADDR":"盛岡市上堂１－２－３８","LNG":"141.1270985","LAT":"39.72392682","ZIP":"020-0125","PARENT_ID":0,"RECORD":0},{"ID":"1373","TNAME":"アミューズメントパーク・アルコ","AREA":"2","PREF":"岩手県","CNT":"1","EVENT":0,"ADDR":"紫波郡矢巾町南矢幅第７地割４２５−３","LNG":"141.15267097949982","LAT":"39.611071221937365","ZIP":"028-3615","PARENT_ID":0,"RECORD":0},{"ID":"3236","TNAME":"ＢＩＮＧＯ一関","AREA":"2","PREF":"岩手県","CNT":"1","EVENT":0,"ADDR":"一関市山目字中野９２−１","LNG":"141.1183130792374","LAT":"38.93378481357652","ZIP":"021-0053","PARENT_ID":0,"RECORD":0},{"ID":"6120","TNAME":"ソユーゲームフィールド盛岡南店","AREA":"2","PREF":"岩手県","CNT":"1","EVENT":0,"ADDR":"盛岡市本宮７丁目１番１号　イオンモール盛岡南店１Ｆ","LNG":"141.1286675364014","LAT":"39.68365273652895","ZIP":"020-0866","PARENT_ID":0,"RECORD":0},{"ID":"6123","TNAME":"ＧｉＧＯ水沢","AREA":"2","PREF":"岩手県","CNT":"1","EVENT":0,"ADDR":"奥州市水沢区佐倉河字鐙田４－１","LNG":"141.1493587","LAT":"39.15266107","ZIP":"023-0003","PARENT_ID":0,"RECORD":0},{"ID":"6191","TNAME":"サン　シャイン","AREA":"2","PREF":"岩手県","CNT":"1","EVENT":0,"ADDR":"盛岡市大通２−７−２１　ソレントビル　１階、２階","LNG":"141.14550646256566","LAT":"39.70322640969087","ZIP":"020-0022","PARENT_ID":0,"RECORD":0},{"ID":"6212","TNAME":"ソユーゲームフィールド釜石店","AREA":"2","PREF":"岩手県","CNT":"1","EVENT":0,"ADDR":"釜石市港町二丁目１番１号　イオンタウン釜石店　３Ｆ","LNG":"141.88259043079688","LAT":"39.271614486398505","ZIP":"026-0011","PARENT_ID":0,"RECORD":0},{"ID":"7880","TNAME":"さんさんらんど大船渡","AREA":"2","PREF":"岩手県","CNT":"1","EVENT":0,"ADDR":"大船渡市盛町１０−１１　（協）南三陸ＳＣサンリア　１Ｆ","LNG":"141.70922190674594","LAT":"39.087840628838784","ZIP":"022-0003","PARENT_ID":0,"RECORD":0}],"COPYRIGHT":"2023"}
{"TITLE":"グル―ヴコースター4G / グル―ヴコースター4C","DATE":"2023-04-07 22:59:49","DATA":[{"ID":"468","TNAME":"ゲームコーナー東部","AREA":"2","PREF":"宮城県","CNT":"2","EVENT":0,"ADDR":"仙台市若林区六丁の目中町２６−６０　斎喜東部ビル","LNG":"140.943894","LAT":"38.250969","ZIP":"984-0012","PARENT_ID":0,"RECORD":0},{"ID":"1441","TNAME":"タイトー仙台ベガロポリス店","AREA":"2","PREF":"宮城県","CNT":"1","EVENT":0,"ADDR":"仙台市太白区西多賀５－２４－１　ベガロポリス内","LNG":"140.848312","LAT":"38.21983083","ZIP":"982-0034","PARENT_ID":0,"RECORD":0},{"ID":"1829","TNAME":"タイトー仙台クリスロード店","AREA":"2","PREF":"宮城県","CNT":"3","EVENT":0,"ADDR":"仙台市青葉区中央２－３－２５","LNG":"140.8756222","LAT":"38.2609965","ZIP":"980-0021","PARENT_ID":0,"RECORD":0},{"ID":"2378","TNAME":"サードプラネットＢｉＶｉ仙台店","AREA":"2","PREF":"宮城県","CNT":"1","EVENT":0,"ADDR":"仙台市宮城野区榴岡２丁目１番２５号","LNG":"140.88368530000002","LAT":"38.2610717","ZIP":"983-0852","PARENT_ID":0,"RECORD":0},{"ID":"2599","TNAME":"プラサカプコン石巻店","AREA":"2","PREF":"宮城県","CNT":"1","EVENT":0,"ADDR":"石巻市蛇田字新金沼１７０番地　イオン石巻ショッピングセンター２Ｆ","LNG":"141.2648718","LAT":"38.4475387","ZIP":"986-0861","PARENT_ID":0,"RECORD":0},{"ID":"3001","TNAME":"ＧＡＭＥ　ＢＡＮＫ　仙台泉店","AREA":"2","PREF":"宮城県","CNT":"2","EVENT":0,"ADDR":"仙台市泉区大沢２丁目５−４","LNG":"140.8773475","LAT":"38.3527358","ZIP":"981-3137","PARENT_ID":0,"RECORD":0},{"ID":"3496","TNAME":"アミューズメントパークサムワン","AREA":"2","PREF":"宮城県","CNT":"2","EVENT":0,"ADDR":"柴田郡村田町沼辺牡丹山４２−１","LNG":"140.7445028","LAT":"38.0631002","ZIP":"989-1321","PARENT_ID":0,"RECORD":0}],"COPYRIGHT":"2023"}
{"TITLE":"グル―ヴコースター4G / グル―ヴコースター4C","DATE":"2023-04-07 22:59:49","DATA":[{"ID":"2591","TNAME":"プラサカプコン大曲店","AREA":"2","PREF":"秋田県","CNT":"2","EVENT":0,"ADDR":"大仙市和合字坪立１７７　イオン大曲ショッピングセンター２Ｆ","LNG":"140.508414","LAT":"39.4399873","ZIP":"014-0033","PARENT_ID":0,"RECORD":0},{"ID":"6178","TNAME":"ロックンボウル","AREA":"2","PREF":"秋田県","CNT":"2","EVENT":0,"ADDR":"秋田市広面字長沼３０１","LNG":"140.1434164355819","LAT":"39.71727900539106","ZIP":"010-0041","PARENT_ID":0,"RECORD":0}],"COPYRIGHT":"2023"}
{"TITLE":"グル―ヴコースター4G / グル―ヴコースター4C","DATE":"2023-04-07 22:59:49","DATA":[{"ID":"1839","TNAME":"スーパーノバ天童","AREA":"2","PREF":"山形県","CNT":"1","EVENT":0,"ADDR":"天童市南町１丁目５番２６号","LNG":"140.3741282","LAT":"38.3429386","ZIP":"994-0049","PARENT_ID":0,"RECORD":0},{"ID":"3506","TNAME":"アピナ鶴岡店","AREA":"2","PREF":"山形県","CNT":"2","EVENT":0,"ADDR":"鶴岡市文下広野１−１","LNG":"139.8444128036499","LAT":"38.75815777850589","ZIP":"997-0003","PARENT_ID":0,"RECORD":0},{"ID":"6124","TNAME":"ＧｉＧＯ米沢","AREA":"2","PREF":"山形県","CNT":"2","EVENT":0,"ADDR":"米沢市花沢字タナコ原１７７","LNG":"140.133682","LAT":"37.91095175","ZIP":"992-0021","PARENT_ID":0,"RECORD":0},{"ID":"8193","TNAME":"パルケデアミーゴ！","AREA":"2","PREF":"山形県","CNT":"1","EVENT":0,"ADDR":"山形市嶋北１−３−１","LNG":"140.32167633558","LAT":"38.283650724287","ZIP":"990-0885","PARENT_ID":0,"RECORD":0},{"ID":"8202","TNAME":"ビーカム成沢店","AREA":"2","PREF":"山形県","CNT":"1","EVENT":0,"ADDR":"山形市成沢西５−３−２７","LNG":"140.31776569035","LAT":"38.208555646259","ZIP":"990-2339","PARENT_ID":0,"RECORD":0}],"COPYRIGHT":"2023"}
{"TITLE":"グル―ヴコースター4G / グル―ヴコースター4C","DATE":"2023-04-07 22:59:49","DATA":[{"ID":"968","TNAME":"ＧｉＧＯ日和田","AREA":"2","PREF":"福島県","CNT":"1","EVENT":0,"ADDR":"郡山市日和田町字西中島７－１","LNG":"140.380386","LAT":"37.448205","ZIP":"963-0534","PARENT_ID":0,"RECORD":0},{"ID":"1472","TNAME":"ソユーＥスタジオ須賀川店","AREA":"2","PREF":"福島県","CNT":"1","EVENT":0,"ADDR":"須賀川市古河１０５番地　イオンタウン須賀川Ｂ棟内","LNG":"140.38530306441805","LAT":"37.29842060000002","ZIP":"962-0803","PARENT_ID":0,"RECORD":0},{"ID":"2129","TNAME":"ラウンドワン福島店","AREA":"2","PREF":"福島県","CNT":"1","EVENT":0,"ADDR":"福島市太田町１４番１８号","LNG":"140.4560216","LAT":"37.7525148","ZIP":"960-8068","PARENT_ID":0,"RECORD":0},{"ID":"3433","TNAME":"タイトー郡山アティ店","AREA":"2","PREF":"福島県","CNT":"1","EVENT":0,"ADDR":"郡山市駅前１－１６－７","LNG":"140.3875063","LAT":"37.3970134","ZIP":"963-8002","PARENT_ID":0,"RECORD":0},{"ID":"5987","TNAME":"ＧｉＧＯ小名浜","AREA":"2","PREF":"福島県","CNT":"1","EVENT":0,"ADDR":"いわき市小名浜林城塚前１８－１","LNG":"140.8971266","LAT":"36.98592114","ZIP":"971-8122","PARENT_ID":0,"RECORD":0},{"ID":"6126","TNAME":"ＧｉＧＯ福島","AREA":"2","PREF":"福島県","CNT":"1","EVENT":0,"ADDR":"福島市本内中井１－２","LNG":"140.4875257","LAT":"37.7852308","ZIP":"960-0103","PARENT_ID":0,"RECORD":0},{"ID":"7666","TNAME":"ゲームスペースＡ−３店","AREA":"2","PREF":"福島県","CNT":"1","EVENT":0,"ADDR":"西白河郡西郷村豊作西１５−１６−１７","LNG":"140.18260663558203","LAT":"37.124556000000005","ZIP":"961-8042","PARENT_ID":0,"RECORD":0},{"ID":"8194","TNAME":"ドリームファクトリーいわき店","AREA":"2","PREF":"福島県","CNT":"2","EVENT":0,"ADDR":"いわき市中央台飯野４−１","LNG":"140.91736094233","LAT":"37.013408913184","ZIP":"970-8044","PARENT_ID":0,"RECORD":0}],"COPYRIGHT":"2023"}
{"TITLE":"グル―ヴコースター4G / グル―ヴコースター4C","DATE":"2023-04-07 22:59:49","DATA":[{"ID":"1823","TNAME":"ＡＭジャムジャム神栖店","AREA":"3","PREF":"茨城県","CNT":"1","EVENT":0,"ADDR":"神栖市神栖１−８−１","LNG":"140.6444094","LAT":"35.8979951","ZIP":"314-0143","PARENT_ID":0,"RECORD":0},{"ID":"2034","TNAME":"ゲームパドック＋１古河店","AREA":"3","PREF":"茨城県","CNT":"2","EVENT":0,"ADDR":"古河市小堤１９１６番地１","LNG":"139.7578725","LAT":"36.2067383","ZIP":"306-0231","PARENT_ID":0,"RECORD":0},{"ID":"2419","TNAME":"ＡＭジャムジャムつくば店","AREA":"3","PREF":"茨城県","CNT":"2","EVENT":0,"ADDR":"つくば市竹園１−９−２　デイズタウンつくばＢ１","LNG":"140.11534202883604","LAT":"36.07740820568556","ZIP":"305-0032","PARENT_ID":0,"RECORD":0},{"ID":"2428","TNAME":"アミューズ　ビバ","AREA":"3","PREF":"茨城県","CNT":"1","EVENT":0,"ADDR":"ひたちなか市東大島２−１１−１１","LNG":"140.5317338167107","LAT":"36.40635564082148","ZIP":"312-0042","PARENT_ID":0,"RECORD":0},{"ID":"2473","TNAME":"ピンクパンサー日立店","AREA":"3","PREF":"茨城県","CNT":"2","EVENT":0,"ADDR":"日立市東多賀町５−１０−１０","LNG":"140.6304903","LAT":"36.5482261","ZIP":"316-0004","PARENT_ID":0,"RECORD":0},{"ID":"2740","TNAME":"ＧｉＧＯ水戸","AREA":"3","PREF":"茨城県","CNT":"2","EVENT":0,"ADDR":"水戸市宮町１－７－４４　コムボックス３１０","LNG":"140.4745213","LAT":"36.3694663","ZIP":"310-0015","PARENT_ID":0,"RECORD":0},{"ID":"3305","TNAME":"ＧｉＧＯ石岡","AREA":"3","PREF":"茨城県","CNT":"4","EVENT":0,"ADDR":"石岡市東大橋中峯１９７６－１","LNG":"140.3033539","LAT":"36.1986146","ZIP":"315-0031","PARENT_ID":0,"RECORD":0},{"ID":"5978","TNAME":"ゲームパニックつくば","AREA":"3","PREF":"茨城県","CNT":"1","EVENT":0,"ADDR":"土浦市中村東１−１−１","LNG":"140.1682120711639","LAT":"36.04638773735123","ZIP":"300-0850","PARENT_ID":0,"RECORD":0},{"ID":"6128","TNAME":"ＧｉＧＯ龍ヶ崎","AREA":"3","PREF":"茨城県","CNT":"1","EVENT":0,"ADDR":"龍ケ崎市藤ケ丘４－２－８","LNG":"140.1960066","LAT":"35.9385692","ZIP":"301-0855","PARENT_ID":0,"RECORD":0},{"ID":"7877","TNAME":"ゲームメガみらい平店","AREA":"3","PREF":"茨城県","CNT":"1","EVENT":0,"ADDR":"つくばみらい市陽光台１−１４−１　ＴＸみらい平駅前ピアシティー内","LNG":"140.04071498183134","LAT":"35.995537194374165","ZIP":"300-2358","PARENT_ID":0,"RECORD":0},{"ID":"8058","TNAME":"タイトーステーション水戸南店","AREA":"3","PREF":"茨城県","CNT":"2","EVENT":0,"ADDR":"東茨城郡茨城町長岡３４８０－１０１　イオンタウン水戸南ショッピングセンター","LNG":"140.4431299","LAT":"36.31022559","ZIP":"311-3116","PARENT_ID":0,"RECORD":0},{"ID":"8078","TNAME":"タイトーステーション　佐原東店","AREA":"3","PREF":"茨城県","CNT":"2","EVENT":0,"ADDR":"稲敷市西代１４９５　ショッピングセンターパルナ　２Ｆ","LNG":"140.4881277","LAT":"35.91861213","ZIP":"300-0726","PARENT_ID":0,"RECORD":0},{"ID":"8097","TNAME":"ＧｉＧＯ水戸南","AREA":"3","PREF":"茨城県","CNT":"1","EVENT":0,"ADDR":"水戸市千波町２０１７－１","LNG":"140.4429894","LAT":"36.35032886","ZIP":"310-0851","PARENT_ID":0,"RECORD":0},{"ID":"8231","TNAME":"プレビ　水戸オーパ","AREA":"3","PREF":"茨城県","CNT":"1","EVENT":0,"ADDR":"水戸市宮町１－７－３３　水戸オーパ７階　アミューズメント","LNG":"140.4755651","LAT":"36.370143041666","ZIP":"310-0015","PARENT_ID":0,"RECORD":0}],"COPYRIGHT":"2023"}
{"TITLE":"グル―ヴコースター4G / グル―ヴコースター4C","DATE":"2023-04-07 22:59:49","DATA":[{"ID":"1099","TNAME":"ＩＮＴＥＲ　ＰＡＲＫ　＋１","AREA":"3","PREF":"栃木県","CNT":"4","EVENT":0,"ADDR":"宇都宮市インターパーク６丁目５番地１","LNG":"139.90561191534425","LAT":"36.48810867422772","ZIP":"321-0118","PARENT_ID":0,"RECORD":0},{"ID":"1852","TNAME":"ｎａｍｃｏ宇都宮店","AREA":"3","PREF":"栃木県","CNT":"2","EVENT":0,"ADDR":"宇都宮市簗瀬町１６０６−１　Ｐ＆Ｄビル２Ｆ","LNG":"139.89160658035667","LAT":"36.54400668275123","ZIP":"321-0933","PARENT_ID":0,"RECORD":0},{"ID":"2529","TNAME":"タイトー宇都宮ベルモール店","AREA":"3","PREF":"栃木県","CNT":"1","EVENT":0,"ADDR":"宇都宮市陽東６丁目２－１　ベルモール内２Ｆ","LNG":"139.9284026","LAT":"36.555106","ZIP":"321-0904","PARENT_ID":0,"RECORD":0},{"ID":"7680","TNAME":"タイトーイオンモール佐野新都市","AREA":"3","PREF":"栃木県","CNT":"1","EVENT":0,"ADDR":"佐野市高萩町１３２４－１　イオン佐野新都市ショッピングセンター２Ｆ","LNG":"139.606259","LAT":"36.29915107","ZIP":"327-0821","PARENT_ID":0,"RECORD":0},{"ID":"7952","TNAME":"ｎａｍｃｏフェドラＰ＆Ｄ佐野店","AREA":"3","PREF":"栃木県","CNT":"1","EVENT":0,"ADDR":"佐野市高萩町１３４０番地","LNG":"139.60564203558192","LAT":"36.297321946969774","ZIP":"327-0821","PARENT_ID":0,"RECORD":0},{"ID":"8038","TNAME":"ｎａｍｃｏロブレ小山店","AREA":"3","PREF":"栃木県","CNT":"2","EVENT":0,"ADDR":"小山市中央町３−７−１　ロブレ内　４階","LNG":"139.80493842883607","LAT":"36.31256266792041","ZIP":"323-0023","PARENT_ID":0,"RECORD":0},{"ID":"8117","TNAME":"ｎａｍｃｏイオン栃木","AREA":"3","PREF":"栃木県","CNT":"1","EVENT":0,"ADDR":"栃木市箱森町３７−９　イオン栃木内　２Ｆ","LNG":"139.72405869325405","LAT":"36.39498760839594","ZIP":"328-0075","PARENT_ID":0,"RECORD":0}],"COPYRIGHT":"2023"}
{"TITLE":"グル―ヴコースター4G / グル―ヴコースター4C","DATE":"2023-04-07 22:59:49","DATA":[{"ID":"171","TNAME":"群馬レジャーランド伊勢崎店","AREA":"3","PREF":"群馬県","CNT":"1","EVENT":0,"ADDR":"伊勢崎市連取町３０６６−１","LNG":"139.1723119","LAT":"36.318282","ZIP":"372-0812","PARENT_ID":0,"RECORD":0},{"ID":"1124","TNAME":"アピナ太田店","AREA":"3","PREF":"群馬県","CNT":"1","EVENT":0,"ADDR":"太田市内ケ島町９０７−１","LNG":"139.3984248","LAT":"36.2829707","ZIP":"373-0813","PARENT_ID":0,"RECORD":0},{"ID":"1547","TNAME":"群馬レジャーランド藤岡店","AREA":"3","PREF":"群馬県","CNT":"1","EVENT":0,"ADDR":"藤岡市中２００２−１","LNG":"139.07182480000006","LAT":"36.27430298810047","ZIP":"375-0005","PARENT_ID":0,"RECORD":0},{"ID":"1642","TNAME":"ユーズランド高崎店","AREA":"3","PREF":"群馬県","CNT":"2","EVENT":0,"ADDR":"高崎市棟高町１４００番地　イオンモール高崎　２Ｆ","LNG":"139.0062219","LAT":"36.3914769","ZIP":"370-3521","PARENT_ID":0,"RECORD":0},{"ID":"5970","TNAME":"ユーズランド太田店","AREA":"3","PREF":"群馬県","CNT":"1","EVENT":0,"ADDR":"太田市石原町８１番地　イオンモール太田２Ｆ","LNG":"139.40044254810186","LAT":"36.29405072928515","ZIP":"373-0808","PARENT_ID":0,"RECORD":0},{"ID":"5976","TNAME":"インターワールド伊勢崎店","AREA":"3","PREF":"群馬県","CNT":"1","EVENT":0,"ADDR":"伊勢崎市宮子町３４２５−４","LNG":"139.16248986441803","LAT":"36.331512721588986","ZIP":"372-0801","PARENT_ID":0,"RECORD":0},{"ID":"6240","TNAME":"ＧｉＧＯ太田","AREA":"3","PREF":"群馬県","CNT":"1","EVENT":0,"ADDR":"太田市西矢島町５７５－１","LNG":"139.3780682","LAT":"36.27457927","ZIP":"373-0823","PARENT_ID":0,"RECORD":0}],"COPYRIGHT":"2023"}
{"TITLE":"グル―ヴコースター4G / グル―ヴコースター4C","DATE":"2023-04-07 22:59:49","DATA":[{"ID":"2117","TNAME":"プラサカプコン羽生店","AREA":"3","PREF":"埼玉県","CNT":"1","EVENT":0,"ADDR":"羽生市川崎２−２８１−３　イオンモール羽生２Ｆ","LNG":"139.542017","LAT":"36.1429044","ZIP":"348-0039","PARENT_ID":0,"RECORD":0},{"ID":"2280","TNAME":"ＧｉＧＯ入間","AREA":"3","PREF":"埼玉県","CNT":"1","EVENT":0,"ADDR":"入間市東藤沢２－１８","LNG":"139.4181098","LAT":"35.81917171","ZIP":"358-0012","PARENT_ID":0,"RECORD":0},{"ID":"2382","TNAME":"ｎａｍｃｏ熊谷店","AREA":"3","PREF":"埼玉県","CNT":"2","EVENT":0,"ADDR":"熊谷市銀座２丁目９７番地　ＣＡＲＰＡ　１階","LNG":"139.3948999","LAT":"36.1391162","ZIP":"360-0032","PARENT_ID":0,"RECORD":0},{"ID":"2460","TNAME":"ウェアハウス三橋店","AREA":"3","PREF":"埼玉県","CNT":"1","EVENT":0,"ADDR":"さいたま市西区三橋６−９５５−１","LNG":"139.59574","LAT":"35.9158957","ZIP":"331-0052","PARENT_ID":0,"RECORD":0},{"ID":"2938","TNAME":"タイトーステーション所沢店","AREA":"3","PREF":"埼玉県","CNT":"2","EVENT":0,"ADDR":"所沢市日吉町３－７","LNG":"139.4723684","LAT":"35.7880928","ZIP":"359-1123","PARENT_ID":0,"RECORD":0},{"ID":"3398","TNAME":"ラウンドワン大宮店","AREA":"3","PREF":"埼玉県","CNT":"1","EVENT":0,"ADDR":"さいたま市大宮区宮町４丁目９０番地７","LNG":"139.6254402","LAT":"35.9108281","ZIP":"330-0802","PARENT_ID":0,"RECORD":0},{"ID":"5975","TNAME":"ユーズランド春日部店","AREA":"3","PREF":"埼玉県","CNT":"1","EVENT":0,"ADDR":"春日部市下柳４２０−１　イオンモ−ル春日部２Ｆ","LNG":"139.78807313558195","LAT":"35.9877246058199","ZIP":"344-0122","PARENT_ID":0,"RECORD":0},{"ID":"6028","TNAME":"ＡＭフィールド・バイヨン","AREA":"3","PREF":"埼玉県","CNT":"1","EVENT":0,"ADDR":"ふじみ野市うれし野２丁目１６番１号　ＬＣモールうれし野２階","LNG":"139.52237910674603","LAT":"35.85613840000002","ZIP":"356-0056","PARENT_ID":0,"RECORD":0},{"ID":"6117","TNAME":"ソユーゲームフィールド菖蒲店","AREA":"3","PREF":"埼玉県","CNT":"1","EVENT":0,"ADDR":"久喜市菖蒲町菖蒲６００５番地１　モラージュ菖蒲３Ｆ","LNG":"139.61125367116392","LAT":"36.07520540000001","ZIP":"346-0195","PARENT_ID":0,"RECORD":0},{"ID":"7590","TNAME":"ソユーゲームフィールド川口店","AREA":"3","PREF":"埼玉県","CNT":"1","EVENT":0,"ADDR":"川口市並木元町１番７９号　アリオ川口３Ｆ","LNG":"139.71427986441802","LAT":"35.806981854536325","ZIP":"332-0033","PARENT_ID":0,"RECORD":0},{"ID":"7616","TNAME":"タイトーステーション大宮店","AREA":"3","PREF":"埼玉県","CNT":"1","EVENT":0,"ADDR":"さいたま市大宮区大門町１丁目１番地１　ミナトビル１～３Ｆ","LNG":"139.6255934","LAT":"35.90744124","ZIP":"330-0846","PARENT_ID":0,"RECORD":0},{"ID":"7830","TNAME":"宝島　浦和美園店","AREA":"3","PREF":"埼玉県","CNT":"2","EVENT":0,"ADDR":"さいたま市緑区大門３７１０　イオンモール浦和美園　２Ｆ","LNG":"139.73183803016354","LAT":"35.889409410719665","ZIP":"336-0963","PARENT_ID":0,"RECORD":0},{"ID":"7966","TNAME":"ソユーゲームフィールド熊谷店","AREA":"3","PREF":"埼玉県","CNT":"1","EVENT":0,"ADDR":"熊谷市銀座二丁目２４５番地　ショッピングセンター　ニットモール　４Ｆ","LNG":"139.39376413558193","LAT":"36.13882305803046","ZIP":"360-0032","PARENT_ID":0,"RECORD":0}],"COPYRIGHT":"2023"}
{"TITLE":"グル―ヴコースター4G / グル―ヴコースター4C","DATE":"2023-04-07 22:59:49","DATA":[{"ID":"749","TNAME":"ラッキー中央店フェリシダ","AREA":"3","PREF":"千葉県","CNT":"7","EVENT":0,"ADDR":"千葉市中央区富士見２−８−１","LNG":"140.1182646","LAT":"35.6102534","ZIP":"260-0015","PARENT_ID":0,"RECORD":0},{"ID":"1861","TNAME":"ラッキー八千代店","AREA":"3","PREF":"千葉県","CNT":"2","EVENT":0,"ADDR":"八千代市大和田新田１０８８","LNG":"140.06735714232786","LAT":"35.72451522177581","ZIP":"276-0046","PARENT_ID":0,"RECORD":0},{"ID":"2898","TNAME":"タイトーステーション柏店","AREA":"3","PREF":"千葉県","CNT":2,"EVENT":0,"ADDR":"柏市柏２－３－１　フーサワビル","LNG":"139.9727833","LAT":"35.86133294","ZIP":"277-0005","PARENT_ID":0,"RECORD":0},{"ID":"3131","TNAME":"タイトー旭サンモール店","AREA":"3","PREF":"千葉県","CNT":"2","EVENT":0,"ADDR":"旭市イ２６７６－１サンモール３Ｆ","LNG":"140.659107","LAT":"35.72487958","ZIP":"289-2511","PARENT_ID":0,"RECORD":0},{"ID":"3214","TNAME":"ＤＡＩＫＥＩＥＮ","AREA":"3","PREF":"千葉県","CNT":"2","EVENT":0,"ADDR":"市川市大町３５８","LNG":"139.96909083658443","LAT":"35.762420751282704","ZIP":"272-0801","PARENT_ID":0,"RECORD":0},{"ID":"3216","TNAME":"ＧｉＧＯ成田","AREA":"3","PREF":"千葉県","CNT":"1","EVENT":0,"ADDR":"成田市東町１５７－５","LNG":"140.3232217","LAT":"35.7791768","ZIP":"286-0025","PARENT_ID":0,"RECORD":0},{"ID":"6007","TNAME":"ワンダーヴュー成田店","AREA":"3","PREF":"千葉県","CNT":"1","EVENT":0,"ADDR":"成田市飯仲１１−１８","LNG":"140.30251563498769","LAT":"35.75550450976233","ZIP":"286-0046","PARENT_ID":0,"RECORD":0},{"ID":"6106","TNAME":"ｎａｍｃｏイオンＭ幕張新都心店","AREA":"3","PREF":"千葉県","CNT":"1","EVENT":0,"ADDR":"千葉市美浜区豊砂１−１　イオンモール幕張新都心　グランモール３Ｆ","LNG":"140.02793402883606","LAT":"35.65513881761082","ZIP":"261-0024","PARENT_ID":0,"RECORD":0},{"ID":"6131","TNAME":"ＧｉＧＯ幕張","AREA":"3","PREF":"千葉県","CNT":"1","EVENT":0,"ADDR":"千葉市美浜区ひび野１－８　メッセ・アミューズ・モール１Ｆ","LNG":"140.042387","LAT":"35.649699","ZIP":"261-0021","PARENT_ID":0,"RECORD":0},{"ID":"6132","TNAME":"ＧｉＧＯＦＷ蘇我","AREA":"3","PREF":"千葉県","CNT":"1","EVENT":0,"ADDR":"千葉市中央区川崎町５１－１　ハーバーシティ蘇我　フェスティバルウォーク　アミューズメント棟１Ｆ","LNG":"140.1181514","LAT":"35.59221682","ZIP":"260-0835","PARENT_ID":0,"RECORD":0},{"ID":"6211","TNAME":"ＧｉＧＯ我孫子","AREA":"3","PREF":"千葉県","CNT":"1","EVENT":0,"ADDR":"我孫子市柴崎字天王台４７－１","LNG":"140.0300543","LAT":"35.87819289","ZIP":"270-1177","PARENT_ID":0,"RECORD":0},{"ID":"6214","TNAME":"イスカンダル","AREA":"3","PREF":"千葉県","CNT":"1","EVENT":0,"ADDR":"木更津市潮見４−１−２","LNG":"139.91754366441796","LAT":"35.369727443286884","ZIP":"292-0834","PARENT_ID":0,"RECORD":0},{"ID":"7517","TNAME":"アミューズメントエース市川店","AREA":"3","PREF":"千葉県","CNT":"2","EVENT":0,"ADDR":"市川市市川１−９−１１　サン市川ハイツ","LNG":"139.9070709134918","LAT":"35.73043373754478","ZIP":"272-0034","PARENT_ID":0,"RECORD":0},{"ID":"7585","TNAME":"プラサカプコン富津店","AREA":"3","PREF":"千葉県","CNT":"2","EVENT":0,"ADDR":"富津市青木１丁目５番地１　イオンモール富津内ゲームコーナー","LNG":"139.8454410067459","LAT":"35.33047515290805","ZIP":"293-0012","PARENT_ID":0,"RECORD":0},{"ID":"7611","TNAME":"ソユーゲームフィールド木更津店","AREA":"3","PREF":"千葉県","CNT":"1","EVENT":0,"ADDR":"木更津市築地１番４　イオンモール木更津　２Ｆ","LNG":"139.90781237503813","LAT":"35.36627003633066","ZIP":"292-0835","PARENT_ID":0,"RECORD":0},{"ID":"7694","TNAME":"ラッキー佐倉店","AREA":"3","PREF":"千葉県","CNT":"1","EVENT":0,"ADDR":"佐倉市井野１４７５","LNG":"140.136223764418","LAT":"35.718461610693765","ZIP":"285-0855","PARENT_ID":0,"RECORD":0},{"ID":"7920","TNAME":"スタジオプリモ本八幡店","AREA":"3","PREF":"千葉県","CNT":"1","EVENT":0,"ADDR":"市川市八幡２−１５−１０　パティオ５Ｆ","LNG":"139.9275016","LAT":"35.7213241","ZIP":"272-8561","PARENT_ID":0,"RECORD":0},{"ID":"7929","TNAME":"ＧｉＧＯイオンモール銚子","AREA":"3","PREF":"千葉県","CNT":"2","EVENT":0,"ADDR":"銚子市三崎町２－２６６０－１","LNG":"140.7880918","LAT":"35.71063666","ZIP":"288-0815","PARENT_ID":0,"RECORD":0},{"ID":"8036","TNAME":"ｎａｍｃｏ松戸店","AREA":"3","PREF":"千葉県","CNT":"2","EVENT":0,"ADDR":"松戸市松戸１２３０−１　ピアザ松戸","LNG":"139.90074246441804","LAT":"35.78341715179351","ZIP":"271-0092","PARENT_ID":0,"RECORD":0},{"ID":"8233","TNAME":"アミューズメントエース津田沼","AREA":"3","PREF":"千葉県","CNT":"2","EVENT":0,"ADDR":"船橋市前原西２−１５−１　ファミービル１Ｆ～３Ｆ","LNG":"140.0202013914","LAT":"35.692259935381","ZIP":"274-0825","PARENT_ID":0,"RECORD":0},{"ID":"8417","TNAME":"ゲームチャリオット辰巳店","AREA":"3","PREF":"千葉県","CNT":"1","EVENT":0,"ADDR":"市原市市原５００−１","LNG":"140.12209666442","LAT":"35.524812234094","ZIP":"290-0015","PARENT_ID":0,"RECORD":0},{"ID":"8418","TNAME":"ゲームチャリオット五井店","AREA":"3","PREF":"千葉県","CNT":"1","EVENT":0,"ADDR":"市原市五井中央西２－１－２","LNG":"140.08989967546","LAT":"35.513671263333","ZIP":"290-0081","PARENT_ID":0,"RECORD":0},{"ID":"3030","TNAME":"千葉レジャーランド稲毛店","AREA":"3","PREF":"千葉県","CNT":2,"EVENT":0,"ADDR":"千葉市稲毛区小仲台２−５−７　海宝ビル　２Ｆ・３Ｆ","LNG":"140.09319468650824","LAT":"35.63803449869526","ZIP":"263-0043","PARENT_ID":0,"RECORD":0}],"COPYRIGHT":"2023"}
{"TITLE":"グル―ヴコースター4G / グル―ヴコースター4C","DATE":"2023-04-07 22:59:49","DATA":[{"ID":"6","TNAME":"タイトー新宿南口ゲームワールド","AREA":"3","PREF":"東京都","CNT":1,"EVENT":0,"ADDR":"新宿区新宿３－３５－８","LNG":"139.7023052","LAT":"35.6899128","ZIP":"160-0022","PARENT_ID":0,"RECORD":0},{"ID":"8","TNAME":"タイトーステーション新宿東口店","AREA":"3","PREF":"東京都","CNT":"1","EVENT":0,"ADDR":"新宿区新宿３－２２－７","LNG":"139.7015103","LAT":"35.6932817","ZIP":"160-0022","PARENT_ID":0,"RECORD":0},{"ID":"105","TNAME":"タイトーステーション秋葉原店","AREA":"3","PREF":"東京都","CNT":"2","EVENT":0,"ADDR":"千代田区外神田４－２－２　貴三ビル","LNG":"139.7717276","LAT":"35.70022649","ZIP":"101-0021","PARENT_ID":0,"RECORD":0},{"ID":"2881","TNAME":"高田馬場ゲーセンミカド","AREA":"3","PREF":"東京都","CNT":"1","EVENT":0,"ADDR":"新宿区高田馬場４−５−１０　オアシスプラザビル","LNG":"139.7033849358559","LAT":"35.71266505706309","ZIP":"169-0075","PARENT_ID":0,"RECORD":0},{"ID":"3172","TNAME":"ハイテクランド　キューデン","AREA":"3","PREF":"東京都","CNT":"1","EVENT":0,"ADDR":"足立区西新井栄町２−７−２","LNG":"139.7893996","LAT":"35.7771837","ZIP":"123-0843","PARENT_ID":0,"RECORD":0},{"ID":"3360","TNAME":"ドットコム葛西店","AREA":"3","PREF":"東京都","CNT":"1","EVENT":0,"ADDR":"江戸川区中葛西３−３５−５","LNG":"139.8721749","LAT":"35.6643259","ZIP":"134-0083","PARENT_ID":0,"RECORD":0},{"ID":"3440","TNAME":"ランブルプラザ","AREA":"3","PREF":"東京都","CNT":"1","EVENT":0,"ADDR":"豊島区東池袋１−４２−１９","LNG":"139.7135217","LAT":"35.7324753","ZIP":"170-0013","PARENT_ID":0,"RECORD":0},{"ID":"5982","TNAME":"ｎａｍｃｏ王子サンスクエア店","AREA":"3","PREF":"東京都","CNT":"2","EVENT":0,"ADDR":"北区王子１−４−１　サンスクエア　２Ｆ","LNG":"139.73883016528998","LAT":"35.75292604583323","ZIP":"114-0002","PARENT_ID":0,"RECORD":0},{"ID":"6100","TNAME":"ゲームズ　ＩＭＯＮ","AREA":"3","PREF":"東京都","CNT":"1","EVENT":0,"ADDR":"大田区西蒲田８−２４−１２　ＩＭＯＮボウル１Ｆ　ゲームコーナー","LNG":"139.71416772883606","LAT":"35.55987663799397","ZIP":"144-0051","PARENT_ID":0,"RECORD":0},{"ID":"6136","TNAME":"ＧｉＧＯ府中","AREA":"3","PREF":"東京都","CNT":"1","EVENT":0,"ADDR":"府中市西原町１－６－２府中クレッセ内","LNG":"139.4601302","LAT":"35.68242203","ZIP":"183-0046","PARENT_ID":0,"RECORD":0},{"ID":"8035","TNAME":"タイトーステーション立川北口店","AREA":"3","PREF":"東京都","CNT":"2","EVENT":0,"ADDR":"立川市曙町２－４－５　クリサス立川２・３Ｆ","LNG":"139.4120958","LAT":"35.6991298","ZIP":"190-0012","PARENT_ID":0,"RECORD":0},{"ID":"8071","TNAME":"ラウンドワン吉祥寺店","AREA":"3","PREF":"東京都","CNT":"2","EVENT":0,"ADDR":"武蔵野市吉祥寺本町１丁目１１番２２号","LNG":"139.58073362884","LAT":"35.706289046043","ZIP":"180-0004","PARENT_ID":0,"RECORD":0},{"ID":"8072","TNAME":"タイトーステーション国分寺店","AREA":"3","PREF":"東京都","CNT":"2","EVENT":0,"ADDR":"国分寺市本町３－５－１１　Ｉビルディング","LNG":"139.4801133","LAT":"35.70186052","ZIP":"185-0012","PARENT_ID":0,"RECORD":0},{"ID":"8151","TNAME":"タイトーＢＩＧＦＵＮ平和島店","AREA":"3","PREF":"東京都","CNT":"1","EVENT":0,"ADDR":"大田区平和島１－１－１　ＢＩＧＦＡＮ平和島３Ｆ","LNG":"139.7406985","LAT":"35.58436926","ZIP":"143-0006","PARENT_ID":0,"RECORD":0},{"ID":"8168","TNAME":"ゲームセンターＷＩＬＬ","AREA":"3","PREF":"東京都","CNT":"1","EVENT":0,"ADDR":"立川市羽衣町２−４−１３　長田ビル１０２","LNG":"139.42878831165672","LAT":"35.69640454232765","ZIP":"190-0021","PARENT_ID":0,"RECORD":0},{"ID":"8463","TNAME":"タイトーＦＳ吉祥寺ＪＯＹ店","AREA":"3","PREF":"東京都","CNT":"1","EVENT":0,"ADDR":"武蔵野市吉祥寺本町１－８－２３　河田ビル","LNG":"139.57954457669","LAT":"35.704207889031","ZIP":"180-0004","PARENT_ID":0,"RECORD":0}],"COPYRIGHT":"2023"}
{"TITLE":"グル―ヴコースター4G / グル―ヴコースター4C","DATE":"2023-04-07 22:59:49","DATA":[{"ID":"112","TNAME":"タイトーステーション小田原店","AREA":"3","PREF":"神奈川県","CNT":"1","EVENT":0,"ADDR":"小田原市栄町１－３－１２","LNG":"139.1561373","LAT":"35.2549374","ZIP":"250-0011","PARENT_ID":0,"RECORD":0},{"ID":"986","TNAME":"神奈川レジャーランド厚木店","AREA":"3","PREF":"神奈川県","CNT":"1","EVENT":0,"ADDR":"厚木市戸室５−３１−１","LNG":"139.34317022764742","LAT":"35.448110697845976","ZIP":"243-0031","PARENT_ID":0,"RECORD":0},{"ID":"1052","TNAME":"シルクハット川崎ダイス","AREA":"3","PREF":"神奈川県","CNT":"1","EVENT":0,"ADDR":"川崎市川崎区駅前本町８番地　ダイスビル地下２階","LNG":"139.700136426281","LAT":"35.53144805259098","ZIP":"210-0007","PARENT_ID":0,"RECORD":0},{"ID":"1899","TNAME":"プラサカプコン横須賀店","AREA":"3","PREF":"神奈川県","CNT":"2","EVENT":0,"ADDR":"横須賀市若松町２丁目３０番地　モアーズシティ４Ｆ","LNG":"139.6700672","LAT":"35.2783331","ZIP":"238-0007","PARENT_ID":0,"RECORD":0},{"ID":"2298","TNAME":"ＧｉＧＯ綱島","AREA":"3","PREF":"神奈川県","CNT":"1","EVENT":0,"ADDR":"横浜市港北区綱島西２－６－２９　城田ビル　３Ｆ","LNG":"139.6329036","LAT":"35.53642243","ZIP":"223-0053","PARENT_ID":0,"RECORD":0},{"ID":"3047","TNAME":"タイトー横浜西口五番街店","AREA":"3","PREF":"神奈川県","CNT":2,"EVENT":0,"ADDR":"横浜市西区南幸１－１２－９","LNG":"139.6195207","LAT":"35.4647303","ZIP":"220-0005","PARENT_ID":0,"RECORD":0},{"ID":"3132","TNAME":"タイトー海老名ビナウォーク店","AREA":"3","PREF":"神奈川県","CNT":"1","EVENT":0,"ADDR":"海老名市中央１－１８－１　ビナウォーク６番館２階","LNG":"139.3955719","LAT":"35.45224532","ZIP":"243-0432","PARENT_ID":0,"RECORD":0},{"ID":"3499","TNAME":"ムトス相模原店","AREA":"3","PREF":"神奈川県","CNT":"1","EVENT":0,"ADDR":"相模原市中央区中央２−１−５","LNG":"139.37105049447746","LAT":"35.57356037138674","ZIP":"252-0239","PARENT_ID":0,"RECORD":0},{"ID":"6221","TNAME":"アピナ橋本店","AREA":"3","PREF":"神奈川県","CNT":"1","EVENT":0,"ADDR":"相模原市緑区西橋本５−１−１　ラ・フローラル駐車場棟１Ｆ","LNG":"139.33812022883603","LAT":"35.59738798586528","ZIP":"252-0131","PARENT_ID":0,"RECORD":0},{"ID":"8066","TNAME":"タイトーステーション溝の口店","AREA":"3","PREF":"神奈川県","CNT":4,"EVENT":0,"ADDR":"川崎市高津区溝口１－１１－８　ムサシボウビル","LNG":"139.6126889","LAT":"35.60017343","ZIP":"213-0001","PARENT_ID":0,"RECORD":0},{"ID":"1575","TNAME":"ラウンドワン横浜駅西口店","AREA":"3","PREF":"神奈川県","CNT":2,"EVENT":0,"ADDR":"横浜市西区南幸２丁目８−１６","LNG":"139.6180048226845","LAT":"35.46396963842857","ZIP":"220-0005","PARENT_ID":0,"RECORD":0}],"COPYRIGHT":"2023"}
{"TITLE":"グル―ヴコースター4G / グル―ヴコースター4C","DATE":"2023-04-07 22:59:49","DATA":[{"ID":"2392","TNAME":"プラサカプコン甲府店","AREA":"3","PREF":"山梨県","CNT":"2","EVENT":0,"ADDR":"中巨摩郡昭和町西条字北河原３７１７番地","LNG":"138.54625235620574","LAT":"35.64288601169903","ZIP":"409-3866","PARENT_ID":0,"RECORD":0},{"ID":"6080","TNAME":"タイトーラザウォーク甲斐双葉店","AREA":"3","PREF":"山梨県","CNT":"2","EVENT":0,"ADDR":"甲斐市志田字柿木６１６−１","LNG":"138.48223357487","LAT":"35.685428686249","ZIP":"400-0107","PARENT_ID":0,"RECORD":0}],"COPYRIGHT":"2023"}
{"TITLE":"グル―ヴコースター4G / グル―ヴコースター4C","DATE":"2023-04-07 22:59:49","DATA":[{"ID":"1130","TNAME":"アピナ松本店","AREA":"4","PREF":"長野県","CNT":"2","EVENT":0,"ADDR":"松本市双葉１９−１０","LNG":"137.9615503","LAT":"36.2105026","ZIP":"390-0833","PARENT_ID":0,"RECORD":0},{"ID":"1663","TNAME":"ラウンドワン長野店","AREA":"4","PREF":"長野県","CNT":"1","EVENT":0,"ADDR":"長野市東和田８２７番６","LNG":"138.2252561","LAT":"36.6510589","ZIP":"381-0038","PARENT_ID":0,"RECORD":0},{"ID":"2212","TNAME":"アピナ伊那店","AREA":"4","PREF":"長野県","CNT":"2","EVENT":0,"ADDR":"伊那市西町５０９３","LNG":"137.95037750251618","LAT":"35.83269088733566","ZIP":"396-0026","PARENT_ID":0,"RECORD":0},{"ID":"3210","TNAME":"アピナ飯田店","AREA":"4","PREF":"長野県","CNT":"1","EVENT":0,"ADDR":"飯田市座光寺３７２８−１","LNG":"137.85970542536165","LAT":"35.5299673932389","ZIP":"395-0001","PARENT_ID":0,"RECORD":0},{"ID":"3728","TNAME":"アピナ塩尻店","AREA":"4","PREF":"長野県","CNT":"1","EVENT":0,"ADDR":"塩尻市広丘野村１７９４−１","LNG":"137.9538308","LAT":"36.1415524","ZIP":"399-0702","PARENT_ID":0,"RECORD":0},{"ID":"7635","TNAME":"アピナ上田店","AREA":"4","PREF":"長野県","CNT":"1","EVENT":0,"ADDR":"上田市秋和３５９−１","LNG":"138.22350279021305","LAT":"36.41598648673937","ZIP":"386-0041","PARENT_ID":0,"RECORD":0},{"ID":"8061","TNAME":"楽市楽座イオンモール松本店","AREA":"4","PREF":"長野県","CNT":"2","EVENT":0,"ADDR":"松本市中央四丁目９番５１号　Ｂ棟２階","LNG":"137.97919930398257","LAT":"36.23421634150426","ZIP":"390-0811","PARENT_ID":0,"RECORD":0}],"COPYRIGHT":"2023"}
{"TITLE":"グル―ヴコースター4G / グル―ヴコースター4C","DATE":"2023-04-07 22:59:49","DATA":[{"ID":"38","TNAME":"タイトーＦステーション燕三条店","AREA":"4","PREF":"新潟県","CNT":"2","EVENT":0,"ADDR":"燕市井土巻３－１５０　イオン県央店　アメニティー棟１階","LNG":"138.9349549","LAT":"37.65124424","ZIP":"959-1232","PARENT_ID":0,"RECORD":0},{"ID":"2735","TNAME":"アピナ長岡店","AREA":"4","PREF":"新潟県","CNT":"1","EVENT":0,"ADDR":"長岡市堺東町２２番地","LNG":"138.8131531","LAT":"37.4578935","ZIP":"940-2026","PARENT_ID":0,"RECORD":0},{"ID":"3374","TNAME":"メジャーロード白根店","AREA":"4","PREF":"新潟県","CNT":"1","EVENT":0,"ADDR":"新潟市南区上下諏訪木論地９４７−６","LNG":"139.02218175532528","LAT":"37.76060561592344","ZIP":"950-1214","PARENT_ID":0,"RECORD":0},{"ID":"3504","TNAME":"メジャーロード黒埼店","AREA":"4","PREF":"新潟県","CNT":"1","EVENT":0,"ADDR":"新潟市西区山田３３０３","LNG":"139.0173471","LAT":"37.8682649","ZIP":"950-1101","PARENT_ID":0,"RECORD":0},{"ID":"6063","TNAME":"タイトーイオン新潟西店","AREA":"4","PREF":"新潟県","CNT":"2","EVENT":0,"ADDR":"新潟市西区小新南２丁目１番１０号","LNG":"138.9949157","LAT":"37.86808582","ZIP":"950-2028","PARENT_ID":0,"RECORD":0},{"ID":"7537","TNAME":"アピナ上越インター店","AREA":"4","PREF":"新潟県","CNT":"1","EVENT":0,"ADDR":"上越市下門前１６６１","LNG":"138.25563157790987","LAT":"37.15427250000001","ZIP":"942-0063","PARENT_ID":0,"RECORD":0},{"ID":"8037","TNAME":"ｎａｍｃｏ新潟店","AREA":"4","PREF":"新潟県","CNT":"1","EVENT":0,"ADDR":"新潟市中央区南笹口１−１−１　ひもろぎビル２階","LNG":"139.0639037779099","LAT":"37.90839905995808","ZIP":"950-0912","PARENT_ID":0,"RECORD":0},{"ID":"8431","TNAME":"丸大プレイランド","AREA":"4","PREF":"新潟県","CNT":"1","EVENT":0,"ADDR":"新潟市中央区本町通６番町１１２２－１","LNG":"139.04709976931","LAT":"37.920036795474","ZIP":"951-8067","PARENT_ID":0,"RECORD":0},{"ID":"8436","TNAME":"テクノポリス","AREA":"4","PREF":"新潟県","CNT":"1","EVENT":0,"ADDR":"長岡市要町１丁目８番５０号","LNG":"138.83772260675","LAT":"37.4249924797","ZIP":"940-1153","PARENT_ID":0,"RECORD":0}],"COPYRIGHT":"2023"}
{"TITLE":"グル―ヴコースター4G / グル―ヴコースター4C","DATE":"2023-04-07 22:59:49","DATA":[{"ID":"382","TNAME":"トヤマ　レジャーランド　呉羽店","AREA":"5","PREF":"富山県","CNT":"1","EVENT":0,"ADDR":"富山市高木字貝塚２０５４","LNG":"137.15800336798407","LAT":"36.7154192246708","ZIP":"930-0106","PARENT_ID":0,"RECORD":0},{"ID":"3352","TNAME":"アピナ富山豊田店","AREA":"5","PREF":"富山県","CNT":"1","EVENT":0,"ADDR":"富山市豊田町２−１２−６６","LNG":"137.2354794","LAT":"36.7209909","ZIP":"931-8313","PARENT_ID":0,"RECORD":0},{"ID":"5979","TNAME":"ユーズランド高岡店","AREA":"5","PREF":"富山県","CNT":"1","EVENT":0,"ADDR":"高岡市下伏間江３８３　イオンモール高岡２Ｆ","LNG":"137.01740029999996","LAT":"36.7236221","ZIP":"933-0813","PARENT_ID":0,"RECORD":0},{"ID":"8217","TNAME":"ＧｉＧＯイオンモール高岡","AREA":"5","PREF":"富山県","CNT":"1","EVENT":0,"ADDR":"高岡市下伏間３８３　イオンモール高岡　西館２Ｆ","LNG":"137.0168448","LAT":"36.7240473","ZIP":"933-0813","PARENT_ID":0,"RECORD":0},{"ID":"8434","TNAME":"ゲームスポット　アップル","AREA":"5","PREF":"富山県","CNT":"1","EVENT":0,"ADDR":"魚津市吉島二丁目４０７－１","LNG":"137.4142328166","LAT":"36.825503807059","ZIP":"937-0041","PARENT_ID":0,"RECORD":0}],"COPYRIGHT":"2023"}
{"TITLE":"グル―ヴコースター4G / グル―ヴコースター4C","DATE":"2023-04-07 22:59:49","DATA":[{"ID":"111","TNAME":"タイトーステーション金沢店","AREA":"5","PREF":"石川県","CNT":"1","EVENT":0,"ADDR":"金沢市片町２－１－７　宇都宮ビル　１Ｆ","LNG":"136.6529997","LAT":"36.5613365","ZIP":"920-0981","PARENT_ID":0,"RECORD":0},{"ID":"1553","TNAME":"ラウンドワン金沢店","AREA":"5","PREF":"石川県","CNT":"1","EVENT":0,"ADDR":"金沢市横川６丁目１２０−１","LNG":"136.6259888","LAT":"36.542063","ZIP":"921-8163","PARENT_ID":0,"RECORD":0},{"ID":"7636","TNAME":"アピナ野々市店","AREA":"5","PREF":"石川県","CNT":"1","EVENT":0,"ADDR":"野々市市白山町４−１　イオンタウン野々市店内","LNG":"136.61249677790988","LAT":"36.52712257499873","ZIP":"921-8821","PARENT_ID":0,"RECORD":0},{"ID":"8015","TNAME":"楽市楽座イオンモール新小松店","AREA":"5","PREF":"石川県","CNT":"1","EVENT":0,"ADDR":"小松市沖周辺土地区画土地区画整理事業地内仮換地２０街区","LNG":"136.46780416486513","LAT":"36.3951963052094","ZIP":"923-0861","PARENT_ID":0,"RECORD":0}],"COPYRIGHT":"2023"}
{"TITLE":"グル―ヴコースター4G / グル―ヴコースター4C","DATE":"2023-04-07 22:59:49","DATA":[{"ID":"2320","TNAME":"ＧｉＧＯ武生","AREA":"5","PREF":"福井県","CNT":"2","EVENT":0,"ADDR":"越前市新町３字１３－４","LNG":"136.1534092","LAT":"35.9051868","ZIP":"915-0883","PARENT_ID":0,"RECORD":0},{"ID":"3279","TNAME":"ＪＯＹＬＡＮＤ敦賀店","AREA":"5","PREF":"福井県","CNT":"1","EVENT":0,"ADDR":"敦賀市木崎４０−１２","LNG":"136.0432562","LAT":"35.6447026","ZIP":"914-0814","PARENT_ID":0,"RECORD":0},{"ID":"8049","TNAME":"福井レジャーランド板垣店","AREA":"5","PREF":"福井県","CNT":"1","EVENT":0,"ADDR":"福井市下馬３−１１２","LNG":"136.2337906957398","LAT":"36.04224371486313","ZIP":"918-8112","PARENT_ID":0,"RECORD":0}],"COPYRIGHT":"2023"}
{"TITLE":"グル―ヴコースター4G / グル―ヴコースター4C","DATE":"2023-04-07 22:59:49","DATA":[{"ID":"385","TNAME":"ポート２４　浜松店","AREA":"6","PREF":"静岡県","CNT":"1","EVENT":0,"ADDR":"浜松市西区坪井町４１８３−１","LNG":"137.64432281255722","LAT":"34.6801494887974","ZIP":"431-0202","PARENT_ID":0,"RECORD":0},{"ID":"2031","TNAME":"ＧｉＧＯ袋井","AREA":"6","PREF":"静岡県","CNT":"1","EVENT":0,"ADDR":"袋井市川井１１４２－１","LNG":"137.911439","LAT":"34.7463375","ZIP":"437-0064","PARENT_ID":0,"RECORD":0},{"ID":"5860","TNAME":"アップル　グランリバー大井川店","AREA":"6","PREF":"静岡県","CNT":"1","EVENT":0,"ADDR":"焼津市下江留１３２７番地","LNG":"138.2732717","LAT":"34.8097161","ZIP":"421-0218","PARENT_ID":0,"RECORD":0},{"ID":"5954","TNAME":"ＡＣＴ　御殿場店","AREA":"6","PREF":"静岡県","CNT":"1","EVENT":0,"ADDR":"御殿場市東山２９６−１","LNG":"138.95299296441806","LAT":"35.29519637018275","ZIP":"412-0024","PARENT_ID":0,"RECORD":0},{"ID":"5955","TNAME":"アップル島田店","AREA":"6","PREF":"静岡県","CNT":"1","EVENT":0,"ADDR":"島田市宝来町８−５","LNG":"138.1874108797623","LAT":"34.82659261961766","ZIP":"427-0016","PARENT_ID":0,"RECORD":0},{"ID":"6047","TNAME":"ジョイランド　アミューズ諏訪","AREA":"6","PREF":"静岡県","CNT":"2","EVENT":0,"ADDR":"沼津市大諏訪２０−２","LNG":"138.83221909999997","LAT":"35.10849387688002","ZIP":"410-0873","PARENT_ID":0,"RECORD":0},{"ID":"6094","TNAME":"楽市楽座サンストリート浜北店","AREA":"6","PREF":"静岡県","CNT":"1","EVENT":0,"ADDR":"浜松市浜北区平口２８６１　サンストリート浜北店２Ｆ","LNG":"137.76101804523012","LAT":"34.795496527974876","ZIP":"434-0041","PARENT_ID":0,"RECORD":0},{"ID":"7577","TNAME":"タイトー新浜松ザザシティ店","AREA":"6","PREF":"静岡県","CNT":"1","EVENT":0,"ADDR":"浜松市中区鍛冶町１５　ザザシティ西館２Ｆ","LNG":"137.7293958","LAT":"34.70493272","ZIP":"430-0933","PARENT_ID":0,"RECORD":0},{"ID":"8009","TNAME":"ＴＦＳイオンモール浜松市野店","AREA":"6","PREF":"静岡県","CNT":"2","EVENT":0,"ADDR":"浜松市東区天王町１９８１−３","LNG":"137.76333984232792","LAT":"34.7403247326976","ZIP":"435-0052","PARENT_ID":0,"RECORD":0}],"COPYRIGHT":"2023"}
{"TITLE":"グル―ヴコースター4G / グル―ヴコースター4C","DATE":"2023-04-07 22:59:49","DATA":[{"ID":"1879","TNAME":"キングジョイ","AREA":"6","PREF":"愛知県","CNT":"1","EVENT":0,"ADDR":"名古屋市中区栄三丁目３番３２","LNG":"136.90493952513123","LAT":"35.16805074161179","ZIP":"460-0008","PARENT_ID":0,"RECORD":0},{"ID":"2207","TNAME":"半田メトロポリス","AREA":"6","PREF":"愛知県","CNT":"1","EVENT":0,"ADDR":"半田市旭町３丁目１１番地１","LNG":"136.92291941415556","LAT":"34.874360022885625","ZIP":"475-0838","PARENT_ID":0,"RECORD":0},{"ID":"2824","TNAME":"ゲームランド（岡崎）","AREA":"6","PREF":"愛知県","CNT":"2","EVENT":0,"ADDR":"岡崎市戸崎町字外山３８−５　イオンモール岡崎シネコン２階","LNG":"137.16307282448","LAT":"34.939202393802","ZIP":"444-0840","PARENT_ID":0,"RECORD":0},{"ID":"3093","TNAME":"豊田ＧＡＺＡ店","AREA":"6","PREF":"愛知県","CNT":"1","EVENT":0,"ADDR":"豊田市喜多町１丁目１４０番地ＧＡＺＡ３Ｆ","LNG":"137.1572653","LAT":"35.0880302","ZIP":"471-0027","PARENT_ID":0,"RECORD":0},{"ID":"3186","TNAME":"ポート２４幸田店","AREA":"6","PREF":"愛知県","CNT":"2","EVENT":0,"ADDR":"額田郡幸田町大字相見字沖原１－３　カメリアガーデン幸田内","LNG":"137.1631135","LAT":"34.8902987","ZIP":"444-0117","PARENT_ID":0,"RECORD":0},{"ID":"5997","TNAME":"ＧｉＧＯ春日井","AREA":"6","PREF":"愛知県","CNT":"1","EVENT":0,"ADDR":"春日井市岩野町４１８０","LNG":"136.96050121911844","LAT":"35.26952269629908","ZIP":"486-0805","PARENT_ID":0,"RECORD":0},{"ID":"6029","TNAME":"タイトーステーション大須店","AREA":"6","PREF":"愛知県","CNT":"3","EVENT":0,"ADDR":"名古屋市中区大須３－２０－７","LNG":"136.904746","LAT":"35.15966273","ZIP":"460-0011","PARENT_ID":0,"RECORD":0},{"ID":"7608","TNAME":"タイトーステーション弥富店","AREA":"6","PREF":"愛知県","CNT":"2","EVENT":0,"ADDR":"弥富市五明１３７１－４","LNG":"136.7192596","LAT":"35.11441286","ZIP":"498-0014","PARENT_ID":0,"RECORD":0},{"ID":"8146","TNAME":"タイトーフェドラ大須店","AREA":"6","PREF":"愛知県","CNT":"2","EVENT":0,"ADDR":"名古屋市中区大須３丁目３０－３１","LNG":"136.9050994","LAT":"35.15949903","ZIP":"460-0011","PARENT_ID":0,"RECORD":0},{"ID":"8363","TNAME":"ＧｉＧＯＭＳささしま","AREA":"6","PREF":"愛知県","CNT":"2","EVENT":0,"ADDR":"名古屋市中村区平池町４丁目６０番１４号","LNG":"136.8849632","LAT":"35.16266686","ZIP":"453-0872","PARENT_ID":0,"RECORD":0}],"COPYRIGHT":"2023"}
{"TITLE":"グル―ヴコースター4G / グル―ヴコースター4C","DATE":"2023-04-07 22:59:49","DATA":[{"ID":"373","TNAME":"岐阜レジャーランド　穂積店","AREA":"6","PREF":"岐阜県","CNT":"1","EVENT":0,"ADDR":"瑞穂市稲里６３０番地","LNG":"136.6846648239425","LAT":"35.38432779414623","ZIP":"501-0224","PARENT_ID":0,"RECORD":0},{"ID":"753","TNAME":"Ａ．Ｃ．グランド","AREA":"6","PREF":"岐阜県","CNT":"1","EVENT":0,"ADDR":"岐阜市茜部大川１−７７","LNG":"136.746185","LAT":"35.3830948","ZIP":"500-8282","PARENT_ID":0,"RECORD":0}],"COPYRIGHT":"2023"}
{"TITLE":"グル―ヴコースター4G / グル―ヴコースター4C","DATE":"2023-04-07 22:59:49","DATA":[{"ID":"2422","TNAME":"プレビ　トナリエ四日市店","AREA":"6","PREF":"三重県","CNT":"2","EVENT":0,"ADDR":"四日市市安島１−３−３１　トナリエ四日市店　５Ｆ","LNG":"136.6166547","LAT":"34.9686061","ZIP":"510-0075","PARENT_ID":0,"RECORD":0},{"ID":"2880","TNAME":"ゲームチャオ松阪","AREA":"6","PREF":"三重県","CNT":"1","EVENT":0,"ADDR":"松阪市船江町７８０","LNG":"136.5258425","LAT":"34.5886531","ZIP":"515-0812","PARENT_ID":0,"RECORD":0},{"ID":"3405","TNAME":"ＧｉＧＯ伊勢","AREA":"6","PREF":"三重県","CNT":"1","EVENT":0,"ADDR":"伊勢市中須町６６６","LNG":"136.6779997","LAT":"34.4921874","ZIP":"516-0053","PARENT_ID":0,"RECORD":0},{"ID":"6147","TNAME":"ＧｉＧＯ久居","AREA":"6","PREF":"三重県","CNT":"1","EVENT":0,"ADDR":"津市久居明神町字風早２５３４－１","LNG":"136.4668374","LAT":"34.68410113","ZIP":"514-1101","PARENT_ID":0,"RECORD":0},{"ID":"6148","TNAME":"ＧｉＧＯ桑名","AREA":"6","PREF":"三重県","CNT":"1","EVENT":0,"ADDR":"桑名市大仲新田宮前１５８番地","LNG":"136.6068129","LAT":"35.08286842","ZIP":"511-0947","PARENT_ID":0,"RECORD":0},{"ID":"7509","TNAME":"タイトーイオンモール明和店","AREA":"6","PREF":"三重県","CNT":"1","EVENT":0,"ADDR":"多気郡明和町中村１２２３　イオンモール明和２Ｆ","LNG":"136.6138527","LAT":"34.58123558","ZIP":"515-0348","PARENT_ID":0,"RECORD":0},{"ID":"7685","TNAME":"アピナ四日市店","AREA":"6","PREF":"三重県","CNT":"1","EVENT":0,"ADDR":"四日市市泊小柳町４−３４","LNG":"136.60682916441806","LAT":"34.93933359505939","ZIP":"510-0883","PARENT_ID":0,"RECORD":0}],"COPYRIGHT":"2023"}
{"TITLE":"グル―ヴコースター4G / グル―ヴコースター4C","DATE":"2023-04-07 22:59:49","DATA":[{"ID":"6001","TNAME":"ＧｉＧＯ甲西","AREA":"7","PREF":"滋賀県","CNT":"1","EVENT":0,"ADDR":"湖南市夏見二ツ橋３５６－１","LNG":"136.0972057","LAT":"34.99488968","ZIP":"520-3223","PARENT_ID":0,"RECORD":0},{"ID":"6149","TNAME":"ＧｉＧＯエイスクエア草津","AREA":"7","PREF":"滋賀県","CNT":"2","EVENT":0,"ADDR":"草津市西渋川１－２３－２３　Ａ／ＳＱＵＡＲＥ　ＳＡＲＡ南館　２Ｆ","LNG":"135.9591606","LAT":"35.02452012","ZIP":"525-0025","PARENT_ID":0,"RECORD":0}],"COPYRIGHT":"2023"}
{"TITLE":"グル―ヴコースター4G / グル―ヴコースター4C","DATE":"2023-04-07 22:59:49","DATA":[{"ID":"1123","TNAME":"プレイランドキング円町店","AREA":"7","PREF":"京都府","CNT":"2","EVENT":0,"ADDR":"京都市中京区西ノ京西円町４０","LNG":"135.73110580444336","LAT":"35.01885581777413","ZIP":"604-8463","PARENT_ID":0,"RECORD":0},{"ID":"5963","TNAME":"あそＶＩＶＡ","AREA":"7","PREF":"京都府","CNT":"1","EVENT":0,"ADDR":"福知山市字堀小字上高田２１４６−１","LNG":"135.13473280865935","LAT":"35.28979077653093","ZIP":"620-0882","PARENT_ID":0,"RECORD":0}],"COPYRIGHT":"2023"}
{"TITLE":"グル―ヴコースター4G / グル―ヴコースター4C","DATE":"2023-04-07 22:59:50","DATA":[{"ID":"1225","TNAME":"ソユーゲームフィールド泉南店","AREA":"7","PREF":"大阪府","CNT":"1","EVENT":0,"ADDR":"泉南市りんくう南浜３番１２　イオンモールりんくう泉南２Ｆ","LNG":"135.26743233203888","LAT":"34.380469649884034","ZIP":"590-0535","PARENT_ID":0,"RECORD":0},{"ID":"2383","TNAME":"ｎａｍｃｏ梅田店","AREA":"7","PREF":"大阪府","CNT":"1","EVENT":0,"ADDR":"大阪市北区小松原町３−３　ＯＳビル２Ｆ　ナムコシティ内","LNG":"135.5004038","LAT":"34.7027645","ZIP":"530-0018","PARENT_ID":0,"RECORD":0},{"ID":"2406","TNAME":"トップラン東大阪店","AREA":"7","PREF":"大阪府","CNT":"2","EVENT":0,"ADDR":"東大阪市東鴻池町１－６－３０　イオンタウン東大阪店","LNG":"135.61756852884","LAT":"34.69369638934","ZIP":"578-0973","PARENT_ID":0,"RECORD":0},{"ID":"3437","TNAME":"タイトーステーション大阪日本橋","AREA":"7","PREF":"大阪府","CNT":2,"EVENT":0,"ADDR":"大阪市浪速区日本橋４－９－１４","LNG":"135.5060574","LAT":"34.6603942","ZIP":"556-0005","PARENT_ID":0,"RECORD":0},{"ID":"6002","TNAME":"ＧｉＧＯ枚方","AREA":"7","PREF":"大阪府","CNT":"2","EVENT":0,"ADDR":"枚方市須山町８３－１　サンシャインプラザ枚方内","LNG":"135.6755624","LAT":"34.81966716","ZIP":"573-1164","PARENT_ID":0,"RECORD":0},{"ID":"6150","TNAME":"ＧｉＧＯ今福","AREA":"7","PREF":"大阪府","CNT":"1","EVENT":0,"ADDR":"大阪市城東区今福東１－９－３４","LNG":"135.5574414","LAT":"34.70093101","ZIP":"536-0002","PARENT_ID":0,"RECORD":0},{"ID":"6151","TNAME":"ＧｉＧＯビバモール寝屋川","AREA":"7","PREF":"大阪府","CNT":"2","EVENT":0,"ADDR":"寝屋川市寝屋南二丁目２２番地２号","LNG":"135.6507072","LAT":"34.76689136","ZIP":"572-0855","PARENT_ID":0,"RECORD":0},{"ID":"7617","TNAME":"タイトーステーションアリオ八尾","AREA":"7","PREF":"大阪府","CNT":"1","EVENT":0,"ADDR":"八尾市光町２丁目３番　イトーヨーカドーアリオ八尾３Ｆ","LNG":"135.6058081","LAT":"34.63283467","ZIP":"581-0803","PARENT_ID":0,"RECORD":0}],"COPYRIGHT":"2023"}
{"TITLE":"グル―ヴコースター4G / グル―ヴコースター4C","DATE":"2023-04-07 22:59:50","DATA":[{"ID":"7821","TNAME":"遊スペース　マジカル","AREA":"7","PREF":"兵庫県","CNT":"1","EVENT":0,"ADDR":"神戸市中央区琴ノ緒町５丁目２−３","LNG":"135.1950603576721","LAT":"34.695531063379214","ZIP":"651-0094","PARENT_ID":0,"RECORD":0},{"ID":"7991","TNAME":"ジョイプラザ豊岡店","AREA":"7","PREF":"兵庫県","CNT":"1","EVENT":0,"ADDR":"豊岡市加広町７−３２　コープデイズ豊岡店　２Ｆ","LNG":"134.81636398650812","LAT":"35.550845764489914","ZIP":"668-0023","PARENT_ID":0,"RECORD":0}],"COPYRIGHT":"2023"}
{"TITLE":"グル―ヴコースター4G / グル―ヴコースター4C","DATE":"2023-04-07 22:59:50","DATA":[{"ID":"8170","TNAME":"ＡＭ　ＣＵＥ奈良大和高田店","AREA":"7","PREF":"奈良県","CNT":"1","EVENT":0,"ADDR":"大和高田市東中２−１１−１６","LNG":"135.7355843711639","LAT":"34.49974505320941","ZIP":"635-0065","PARENT_ID":0,"RECORD":0}],"COPYRIGHT":"2023"}
{"TITLE":"グル―ヴコースター4G / グル―ヴコースター4C","DATE":"2023-04-07 22:59:50","DATA":[{"ID":"8250","TNAME":"タイトーＦステーション南紀店","AREA":"7","PREF":"和歌山県","CNT":"1","EVENT":0,"ADDR":"新宮市佐野３−１１−１９　スーパーセンターオークワ南紀店敷地内","LNG":"135.97054578665","LAT":"33.67214087626","ZIP":"647-0071","PARENT_ID":0,"RECORD":0}],"COPYRIGHT":"2023"}
{"TITLE":"グル―ヴコースター4G / グル―ヴコースター4C","DATE":"2023-04-07 22:59:50","DATA":[{"ID":"786","TNAME":"アミパラテクノランド店","AREA":"8","PREF":"岡山県","CNT":"1","EVENT":0,"ADDR":"岡山市北区大和町１丁目７番１２","LNG":"133.92737925052643","LAT":"34.679150304728005","ZIP":"700-0808","PARENT_ID":0,"RECORD":0},{"ID":"3368","TNAME":"タイトーマルナカ新倉敷店","AREA":"8","PREF":"岡山県","CNT":"1","EVENT":0,"ADDR":"倉敷市玉島爪崎９８１－１　マルナカ新倉敷店内","LNG":"133.6854373","LAT":"34.5620349","ZIP":"713-8102","PARENT_ID":0,"RECORD":0},{"ID":"6005","TNAME":"ＧｉＧＯ倉敷","AREA":"8","PREF":"岡山県","CNT":"1","EVENT":0,"ADDR":"倉敷市西中新田５３５－２","LNG":"133.7698731","LAT":"34.58390461","ZIP":"710-0833","PARENT_ID":0,"RECORD":0}],"COPYRIGHT":"2023"}
{"TITLE":"グル―ヴコースター4G / グル―ヴコースター4C","DATE":"2023-04-07 22:59:50","DATA":[{"ID":"29","TNAME":"タイトーステーション広島紙屋町","AREA":"8","PREF":"広島県","CNT":"1","EVENT":0,"ADDR":"広島市中区紙屋町２－２－２１","LNG":"132.4560729","LAT":"34.3940688","ZIP":"730-0031","PARENT_ID":0,"RECORD":0},{"ID":"791","TNAME":"アミパラここじゃ","AREA":"8","PREF":"広島県","CNT":"1","EVENT":0,"ADDR":"東広島市西条町下見６−１０−１９　山手電機内","LNG":"132.7155279731079","LAT":"34.40761685094118","ZIP":"739-0044","PARENT_ID":0,"RECORD":0},{"ID":"2223","TNAME":"スペースＶ１廿日市","AREA":"8","PREF":"広島県","CNT":"1","EVENT":0,"ADDR":"廿日市市本町４−２３","LNG":"132.33407973002477","LAT":"34.35179661765255","ZIP":"738-0015","PARENT_ID":0,"RECORD":0},{"ID":"2903","TNAME":"タイトーステーション広島本通店","AREA":"8","PREF":"広島県","CNT":"2","EVENT":0,"ADDR":"広島市中区本通３－５","LNG":"132.4604614","LAT":"34.3927634","ZIP":"730-0035","PARENT_ID":0,"RECORD":0},{"ID":"6012","TNAME":"ブラックジャック　アクア店","AREA":"8","PREF":"広島県","CNT":"2","EVENT":0,"ADDR":"広島市安佐南区大町東四丁目１２番１１号","LNG":"132.46247189999997","LAT":"34.46894992604517","ZIP":"731-0124","PARENT_ID":0,"RECORD":0},{"ID":"6237","TNAME":"ｎａｍｃｏイオンモール広島府中","AREA":"8","PREF":"広島県","CNT":"2","EVENT":0,"ADDR":"安芸郡府中町大須２−１−１　イオンモール広島府中内　３Ｆ","LNG":"132.499763264418","LAT":"34.3925524467052","ZIP":"735-0021","PARENT_ID":0,"RECORD":0},{"ID":"7627","TNAME":"ビバーチャ","AREA":"8","PREF":"広島県","CNT":"2","EVENT":0,"ADDR":"広島市中区南竹屋町１０−１７","LNG":"132.4613704030411","LAT":"34.379408659262445","ZIP":"730-0049","PARENT_ID":0,"RECORD":0}],"COPYRIGHT":"2023"}
{"TITLE":"グル―ヴコースター4G / グル―ヴコースター4C","DATE":"2023-04-07 22:59:50","DATA":[{"ID":"6156","TNAME":"ＧｉＧＯ鳥取","AREA":"8","PREF":"鳥取県","CNT":"1","EVENT":0,"ADDR":"鳥取市安長４１６","LNG":"134.2105075","LAT":"35.51189003","ZIP":"680-0913","PARENT_ID":0,"RECORD":0},{"ID":"7892","TNAME":"ＧｉＧＯ米子","AREA":"8","PREF":"鳥取県","CNT":"1","EVENT":0,"ADDR":"米子市両三柳２７７８－２","LNG":"133.322213","LAT":"35.45979098","ZIP":"683-0853","PARENT_ID":0,"RECORD":0}],"COPYRIGHT":"2023"}
{"TITLE":"グル―ヴコースター4G / グル―ヴコースター4C","DATE":"2023-04-07 22:59:50","DATA":[{"ID":"2242","TNAME":"ＧｉＧＯ松江","AREA":"8","PREF":"島根県","CNT":"2","EVENT":0,"ADDR":"松江市嫁島町１２－１５","LNG":"133.0478508","LAT":"35.4501172","ZIP":"690-0047","PARENT_ID":0,"RECORD":0},{"ID":"2605","TNAME":"ｙｏｕ　ｍｅ　ＣＩＲＣＵＳ","AREA":"8","PREF":"島根県","CNT":"2","EVENT":0,"ADDR":"出雲市大塚町６５０番地１　ゆめタウン出雲　シネマ棟３Ｆ","LNG":"132.75617506441802","LAT":"35.37757956074485","ZIP":"693-0063","PARENT_ID":0,"RECORD":0}],"COPYRIGHT":"2023"}
{"TITLE":"グル―ヴコースター4G / グル―ヴコースター4C","DATE":"2023-04-07 22:59:50","DATA":[{"ID":"2138","TNAME":"ファミリーゲームフィールド防府","AREA":"8","PREF":"山口県","CNT":"1","EVENT":0,"ADDR":"防府市鐘紡町７番地１号　イオンタウン防府１Ｆ","LNG":"131.5902560046463","LAT":"34.048228877700254","ZIP":"747-0823","PARENT_ID":0,"RECORD":0},{"ID":"7607","TNAME":"ｎａｍｃｏフジグラン宇部店","AREA":"8","PREF":"山口県","CNT":"2","EVENT":0,"ADDR":"宇部市明神町３丁目１−１　フジグラン宇部店　２Ｆ","LNG":"131.25616059999993","LAT":"33.93060420373821","ZIP":"755-0008","PARENT_ID":0,"RECORD":0},{"ID":"7889","TNAME":"ＧｉＧＯイオンタウン小郡","AREA":"8","PREF":"山口県","CNT":"1","EVENT":0,"ADDR":"山口市小郡前田町３－６","LNG":"131.3986789","LAT":"34.08698206","ZIP":"754-0023","PARENT_ID":0,"RECORD":0}],"COPYRIGHT":"2023"}
{"TITLE":"グル―ヴコースター4G / グル―ヴコースター4C","DATE":"2023-04-07 22:59:50","DATA":[{"ID":"2260","TNAME":"ＧｉＧＯスエヒロボウル徳島","AREA":"9","PREF":"徳島県","CNT":"1","EVENT":0,"ADDR":"徳島市南末広町４－９５－２","LNG":"134.5726533","LAT":"34.06061964","ZIP":"770-0865","PARENT_ID":0,"RECORD":0}],"COPYRIGHT":"2023"}
{"TITLE":"グル―ヴコースター4G / グル―ヴコースター4C","DATE":"2023-04-07 22:59:50","DATA":[{"ID":"2103","TNAME":"ラウンドワン高松店","AREA":"9","PREF":"香川県","CNT":"1","EVENT":0,"ADDR":"高松市松島町２丁目７番４３号","LNG":"134.0670672","LAT":"34.3389079","ZIP":"760-0068","PARENT_ID":0,"RECORD":0},{"ID":"2235","TNAME":"ＧｉＧＯ高松","AREA":"9","PREF":"香川県","CNT":"1","EVENT":0,"ADDR":"高松市勅使町字山王５３５","LNG":"134.0185475","LAT":"34.30846433","ZIP":"761-8058","PARENT_ID":0,"RECORD":0},{"ID":"7801","TNAME":"マックスプラザ善通寺","AREA":"9","PREF":"香川県","CNT":"1","EVENT":0,"ADDR":"善通寺市中村町１７９８−２　マックスボウル　１Ｆ","LNG":"133.76400939814755","LAT":"34.24361813450933","ZIP":"765-0073","PARENT_ID":0,"RECORD":0}],"COPYRIGHT":"2023"}
{"TITLE":"グル―ヴコースター4G / グル―ヴコースター4C","DATE":"2023-04-07 22:59:50","DATA":[{"ID":"328","TNAME":"ＡＭパークＭＧ伊予三島店","AREA":"9","PREF":"愛媛県","CNT":"1","EVENT":0,"ADDR":"四国中央市中之庄町７５−１","LNG":"133.5287212","LAT":"33.9745219","ZIP":"799-0422","PARENT_ID":0,"RECORD":0},{"ID":"2236","TNAME":"ＧｉＧＯ松山","AREA":"9","PREF":"愛媛県","CNT":"1","EVENT":0,"ADDR":"松山市枝松５－７－３２","LNG":"132.7864872","LAT":"33.8282344","ZIP":"790-0962","PARENT_ID":0,"RECORD":0},{"ID":"6112","TNAME":"プラサカプコン新居浜店","AREA":"9","PREF":"愛媛県","CNT":"1","EVENT":0,"ADDR":"新居浜市前田町８−８　イオンモール新居浜２Ｆ","LNG":"133.26886997224426","LAT":"33.95370644147562","ZIP":"792-0007","PARENT_ID":0,"RECORD":0}],"COPYRIGHT":"2023"}
{"TITLE":"グル―ヴコースター4G / グル―ヴコースター4C","DATE":"2023-04-07 22:59:50","MSG":"稼働中の店舗はありません","COPYRIGHT":"2023"}
{"TITLE":"グル―ヴコースター4G / グル―ヴコースター4C","DATE":"2023-04-07 22:59:50","DATA":[{"ID":"848","TNAME":"ｎａｍｃｏ博多バスターミナル店","AREA":"10","PREF":"福岡県","CNT":"1","EVENT":0,"ADDR":"福岡市博多区博多駅中央街２−１　博多バスターミナル　７Ｆ","LNG":"130.419764","LAT":"33.5914604","ZIP":"812-0012","PARENT_ID":0,"RECORD":0},{"ID":"2216","TNAME":"ハイパーメッセ","AREA":"10","PREF":"福岡県","CNT":"2","EVENT":0,"ADDR":"北九州市小倉南区北方４−６−７","LNG":"130.87411726441803","LAT":"33.83917766712052","ZIP":"802-0841","PARENT_ID":0,"RECORD":0},{"ID":"3080","TNAME":"タイトーステーション福岡天神店","AREA":"10","PREF":"福岡県","CNT":2,"EVENT":0,"ADDR":"福岡市中央区天神２－６－３５　サザンクロスビル","LNG":"130.3972936","LAT":"33.5896213","ZIP":"810-0001","PARENT_ID":0,"RECORD":0},{"ID":"3162","TNAME":"ＰＥＰ魚町","AREA":"10","PREF":"福岡県","CNT":"1","EVENT":0,"ADDR":"北九州市小倉北区魚町２丁目４番２０号","LNG":"130.88030281230317","LAT":"33.88389347894192","ZIP":"802-0006","PARENT_ID":0,"RECORD":0},{"ID":"3178","TNAME":"楽市楽座黒崎店","AREA":"10","PREF":"福岡県","CNT":"3","EVENT":0,"ADDR":"北九州市八幡西区桜ケ丘町１番３号","LNG":"130.7560629","LAT":"33.8656842","ZIP":"806-0042","PARENT_ID":0,"RECORD":0},{"ID":"5872","TNAME":"ジャンボパンチ希林","AREA":"10","PREF":"福岡県","CNT":"1","EVENT":0,"ADDR":"飯塚市秋松９４７","LNG":"130.67226110000001","LAT":"33.6222872","ZIP":"820-0083","PARENT_ID":0,"RECORD":0},{"ID":"6095","TNAME":"楽市楽座イオンモール福岡伊都店","AREA":"10","PREF":"福岡県","CNT":"1","EVENT":0,"ADDR":"福岡市西区北原１丁目３番１号　イオンモール福岡伊都店　別館","LNG":"130.25634914232785","LAT":"33.577168377283165","ZIP":"819-0379","PARENT_ID":0,"RECORD":0},{"ID":"7879","TNAME":"小倉メトロポリス","AREA":"10","PREF":"福岡県","CNT":"1","EVENT":0,"ADDR":"北九州市小倉北区西港町２７番地５","LNG":"130.85797516560672","LAT":"33.89674998660147","ZIP":"803-0801","PARENT_ID":0,"RECORD":0}],"COPYRIGHT":"2023"}
{"TITLE":"グル―ヴコースター4G / グル―ヴコースター4C","DATE":"2023-04-07 22:59:50","DATA":[{"ID":"7885","TNAME":"ＧｉＧＯ武雄","AREA":"10","PREF":"佐賀県","CNT":"1","EVENT":0,"ADDR":"武雄市武雄町富岡１２５１７－１","LNG":"130.0346488","LAT":"33.19937186","ZIP":"843-0024","PARENT_ID":0,"RECORD":0},{"ID":"7922","TNAME":"ＴＦＳモラージュ佐賀","AREA":"10","PREF":"佐賀県","CNT":"1","EVENT":0,"ADDR":"佐賀市巨勢町牛島７３０番地　モラージュ佐賀　２Ｆ","LNG":"130.3183692692421","LAT":"33.252319273371505","ZIP":"840-0008","PARENT_ID":0,"RECORD":0},{"ID":"8453","TNAME":"サンゲームス鳥栖店","AREA":"10","PREF":"佐賀県","CNT":"1","EVENT":0,"ADDR":"鳥栖市元町１３５３−１","LNG":"130.50608166442","LAT":"33.374746139323","ZIP":"841-0051","PARENT_ID":0,"RECORD":0}],"COPYRIGHT":"2023"}
{"TITLE":"グル―ヴコースター4G / グル―ヴコースター4C","DATE":"2023-04-07 22:59:50","DATA":[{"ID":"1509","TNAME":"三冠王","AREA":"10","PREF":"長崎県","CNT":"1","EVENT":0,"ADDR":"佐世保市相浦町２６８９−１","LNG":"129.6529102","LAT":"33.1907637","ZIP":"858-0918","PARENT_ID":0,"RECORD":0},{"ID":"3283","TNAME":"ゲームランド松山","AREA":"10","PREF":"長崎県","CNT":"1","EVENT":0,"ADDR":"長崎市松山町６−９","LNG":"129.86330045735554","LAT":"32.77428003517762","ZIP":"852-8118","PARENT_ID":0,"RECORD":0}],"COPYRIGHT":"2023"}
{"TITLE":"グル―ヴコースター4G / グル―ヴコースター4C","DATE":"2023-04-07 22:59:50","DATA":[{"ID":"553","TNAME":"スポラ九品寺","AREA":"10","PREF":"熊本県","CNT":"1","EVENT":0,"ADDR":"熊本市九品寺５丁目１０番１５号","LNG":"130.7148881","LAT":"32.7904656","ZIP":"862-0976","PARENT_ID":0,"RECORD":0},{"ID":"1109","TNAME":"スポラ菊陽","AREA":"10","PREF":"熊本県","CNT":"1","EVENT":0,"ADDR":"菊池郡菊陽町津久礼駄飼代２６１７番２","LNG":"130.80901946531","LAT":"32.864691527427","ZIP":"869-1101","PARENT_ID":0,"RECORD":0},{"ID":"2697","TNAME":"リッチモンド","AREA":"10","PREF":"熊本県","CNT":"1","EVENT":0,"ADDR":"八代市旭中央通２０−３","LNG":"130.6076208","LAT":"32.5042044","ZIP":"866-0844","PARENT_ID":0,"RECORD":0},{"ID":"6078","TNAME":"ｎａｍｃｏＷシティ南熊本店","AREA":"10","PREF":"熊本県","CNT":"2","EVENT":0,"ADDR":"熊本市中央区九品寺６丁目９−１","LNG":"130.71518809999998","LAT":"32.78740053916007","ZIP":"862-0976","PARENT_ID":0,"RECORD":0},{"ID":"6121","TNAME":"パスカワールド宇土店","AREA":"10","PREF":"熊本県","CNT":"1","EVENT":0,"ADDR":"宇土市善道寺町綾織９５番地","LNG":"130.66815645453528","LAT":"32.68346935014366","ZIP":"869-0418","PARENT_ID":0,"RECORD":0}],"COPYRIGHT":"2023"}
{"TITLE":"グル―ヴコースター4G / グル―ヴコースター4C","DATE":"2023-04-07 22:59:50","DATA":[{"ID":"8054","TNAME":"タイトーセントポルタ大分店","AREA":"10","PREF":"大分県","CNT":"2","EVENT":0,"ADDR":"大分市中央町２−１−１","LNG":"131.606336417791","LAT":"33.235388247967876","ZIP":"870-0035","PARENT_ID":0,"RECORD":0},{"ID":"8056","TNAME":"ユーズランド三光店","AREA":"10","PREF":"大分県","CNT":"1","EVENT":0,"ADDR":"中津市三光佐知１０３２　イオンモ−ル三光　２Ｆ","LNG":"131.19326826441807","LAT":"33.55850834057311","ZIP":"871-0111","PARENT_ID":0,"RECORD":0}],"COPYRIGHT":"2023"}
{"TITLE":"グル―ヴコースター4G / グル―ヴコースター4C","DATE":"2023-04-07 22:59:50","DATA":[{"ID":"1696","TNAME":"ラウンドワン宮崎店","AREA":"10","PREF":"宮崎県","CNT":"1","EVENT":0,"ADDR":"宮崎市中村東３丁目４−６０","LNG":"131.4175947","LAT":"31.8953441","ZIP":"880-0904","PARENT_ID":0,"RECORD":0},{"ID":"6227","TNAME":"ｎａｍｃｏ日向店","AREA":"10","PREF":"宮崎県","CNT":"1","EVENT":0,"ADDR":"日向市日知屋１４７９８−１　ハイパーモールメルクス日向内","LNG":"131.64083294232785","LAT":"32.4486757723893","ZIP":"883-0062","PARENT_ID":0,"RECORD":0}],"COPYRIGHT":"2023"}
{"TITLE":"グル―ヴコースター4G / グル―ヴコースター4C","DATE":"2023-04-07 22:59:50","DATA":[{"ID":"2144","TNAME":"サンアミューズ鹿屋","AREA":"10","PREF":"鹿児島県","CNT":"1","EVENT":0,"ADDR":"鹿屋市札元２丁目３７９８−１","LNG":"130.872925","LAT":"31.3997964","ZIP":"893-0013","PARENT_ID":0,"RECORD":0},{"ID":"2209","TNAME":"Ｇ−ＳＴＡ","AREA":"10","PREF":"鹿児島県","CNT":"1","EVENT":0,"ADDR":"薩摩川内市向田本町４９番","LNG":"130.3074407591364","LAT":"31.815730233220346","ZIP":"895-0021","PARENT_ID":0,"RECORD":0},{"ID":"8136","TNAME":"サードプラネット隼人店","AREA":"10","PREF":"鹿児島県","CNT":"1","EVENT":0,"ADDR":"霧島市隼人町見次４２７−１","LNG":"130.74001351055904","LAT":"31.742706240127294","ZIP":"899-5117","PARENT_ID":0,"RECORD":0},{"ID":"8256","TNAME":"ＴＦＳニシムタ出水店","AREA":"10","PREF":"鹿児島県","CNT":"1","EVENT":0,"ADDR":"出水市六月田町３４７番地","LNG":"130.34516211164","LAT":"32.106265976019","ZIP":"899-0126","PARENT_ID":0,"RECORD":0}],"COPYRIGHT":"2023"}
{"TITLE":"グル―ヴコースター4G / グル―ヴコースター4C","DATE":"2023-04-07 22:59:50","DATA":[{"ID":"8024","TNAME":"ＮＡＭＣＯＬＡＮＤ具志川店","AREA":"11","PREF":"沖縄県","CNT":"1","EVENT":0,"ADDR":"うるま市字前原幸崎原３０３番地　イオン具志川ショッピングセンター内　２Ｆ","LNG":"127.84424093558198","LAT":"26.338223637708783","ZIP":"904-2235","PARENT_ID":0,"RECORD":0}],"COPYRIGHT":"2023"}
